<FSData version="9.0"><Vor dme="TRUE" dmeOnly="FALSE" lat="19.2850305140018" lon="166.627533137798" alt="4.267M" type="HIGH" frequency="113.500" range="361237.0M" magvar="-5.29" region="PW" ident="AWK" name="WAKE I."><Dme lat="19.2850305140018" lon="166.627533137798" alt="4.267M" range="361237.0M" /></Vor><Vor dme="TRUE" dmeOnly="TRUE" lat="7.45711103081703" lon="151.840527802706" alt="29.26M" type="HIGH" frequency="116.400" range="361237.0M" magvar="-3.93" region="PT" ident="TKK" name="TRUK (WEENO ISLAND)"><Dme lat="7.45711103081703" lon="151.840527802706" alt="29.26M" range="361237.0M" /></Vor><Vor dme="TRUE" dmeOnly="TRUE" lat="6.98347214609385" lon="158.202111124992" alt="3.048M" type="HIGH" frequency="111.000" range="361237.0M" magvar="-5.74" region="PT" ident="PNI" name="POHNPEI"><Dme lat="6.98347214609385" lon="158.202111124992" alt="3.048M" range="361237.0M" /></Vor><Vor dme="TRUE" dmeOnly="TRUE" lat="5.35200007259846" lon="162.955944389105" alt="2.743M" type="HIGH" frequency="115.300" range="361237.0M" magvar="-7.2" region="PT" ident="UKS" name="KOSRAE"><Dme lat="5.35200007259846" lon="162.955944389105" alt="2.743M" range="361237.0M" /></Vor><Vor dme="TRUE" dmeOnly="TRUE" lat="9.39541105180979" lon="167.473522424698" alt="3.657M" type="HIGH" frequency="111.400" range="361237.0M" magvar="-7.54" region="PK" ident="ROI" name="ROI-NAMUR"><Dme lat="9.39541105180979" lon="167.473522424698" alt="3.657M" range="361237.0M" /></Vor><Vor dme="TRUE" dmeOnly="TRUE" lat="8.72166663408279" lon="167.730000168085" alt="2.133M" type="HIGH" frequency="114.300" range="361237.0M" magvar="-7.7" region="PK" ident="NDJ" name="BUCHOLZ (KWAJALEIN I.)"><Dme lat="8.72166663408279" lon="167.730000168085" alt="2.133M" range="361237.0M" /></Vor><Vor dme="TRUE" dmeOnly="TRUE" lat="7.0666665583849" lon="171.278333365917" alt="1.828M" type="HIGH" frequency="116.700" range="361237.0M" magvar="-8.57" region="PK" ident="MAJ" name="MAJURO (MARSHALL IS.)"><Dme lat="7.0666665583849" lon="171.278333365917" alt="1.828M" range="361237.0M" /></Vor><Vor dme="TRUE" dmeOnly="TRUE" lat="1.37694451957941" lon="173.142777532339" alt="6.096M" type="HIGH" frequency="114.300" range="361237.0M" magvar="-9.43" region="NG" ident="TW" name="TARAWA"><Dme lat="1.37694451957941" lon="173.142777532339" alt="6.096M" range="361237.0M" /></Vor><Ndb lat="7.45713885873556" lon="151.840472370386" alt="29.26M" type="H" frequency="0375.00" range="138937.0M" magvar="-3.93" region="PT" ident="TKK" name="TRUK (WEENO ISLAND)" /><Ndb lat="6.9823332130909" lon="158.202083408833" alt="3.048M" type="H" frequency="0366.00" range="138937.0M" magvar="-5.74" region="PT" ident="PNI" name="POHNPEI" /><Ndb lat="5.35200007259846" lon="162.955944389105" alt="22.555M" type="H" frequency="0393.00" range="138937.0M" magvar="-7.2" region="PT" ident="UKS" name="KOSRAE" /><Ndb lat="8.72087504714727" lon="167.727755606174" alt="4.572M" type="H" frequency="0359.00" range="138937.0M" magvar="-7.7" region="PK" ident="NDJ" name="BUCHOLZ (KWAJALEIN I.)" /><Ndb lat="7.0666665583849" lon="171.278333365917" alt="1.524M" type="H" frequency="0316.00" range="138937.0M" magvar="-8.57" region="PK" ident="MAJ" name="MAJURO (MARSHALL IS.)" /><Ndb lat="1.37716647237539" lon="173.142833411694" alt="0.609M" type="H" frequency="0390.00" range="138937.0M" magvar="-9.43" region="NG" ident="BO" name="BONRIKI (TARAWA)" /><Ndb lat="0.499999970197678" lon="173.850000053644" alt="0.0M" type="H" frequency="0396.00" range="138937.0M" magvar="-9.59" region="NG" ident="AA" name="ABEMAMA" /></FSData>