<?xml version="1.0" encoding="ISO-8859-1"?>
<!-- Created by Scenery Design Engine (SDE) on 3/16/2025 -->
<FSData
   version="9.0"
   xmlns:xsi="http://www.w3.org/2001/XMLSchema-instance"
   xsi:noNamespaceSchemaLocation="bglcomp.xsd">
   <SceneryObject
      lat="69.3313010036945"
      lon="87.3733489215374"
      alt="0.0M"
      altitudeIsAgl="TRUE"
      pitch="0"
      bank="0"
      heading="31.7669677734375"
      imageComplexity="VERY_DENSE">
      <LibraryObject
         name="{73286269-0380-11d3-9c85-00105a0ce62a}"
         scale="1.00"
         />
   </SceneryObject>
   <SceneryObject
      lat="69.2989156767726"
      lon="87.3154476284981"
      alt="0.0M"
      altitudeIsAgl="TRUE"
      pitch="0"
      bank="0"
      heading="31.7669677734375"
      imageComplexity="VERY_DENSE">
      <LibraryObject
         name="{c545a270-e2ec-11d2-9c84-00105a0ce62a}"
         scale="1.00"
         />
   </SceneryObject>
   <SceneryObject
      lat="69.2683334648609"
      lon="87.255000025034"
      alt="0.0M"
      altitudeIsAgl="TRUE"
      pitch="0"
      bank="0"
      heading="0"
      imageComplexity="NORMAL">
      <LibraryObject
         name="{2fb72c66-290c-4727-b970-da20984cee83}"
         scale="1.00"
         />
   </SceneryObject>
   <SceneryObject
      lat="69.3316667899489"
      lon="87.3716667294502"
      alt="0.0M"
      altitudeIsAgl="TRUE"
      pitch="0"
      bank="0"
      heading="0"
      imageComplexity="NORMAL">
      <LibraryObject
         name="{5a003f36-68dd-4f97-b0b3-616863779a85}"
         scale="1.00"
         />
   </SceneryObject>
   <SceneryObject
      lat="69.3516666814685"
      lon="87.4083334207535"
      alt="0.0M"
      altitudeIsAgl="TRUE"
      pitch="0"
      bank="0"
      heading="0"
      imageComplexity="NORMAL">
      <LibraryObject
         name="{4808a0b0-fc56-4d43-917d-8620b36e8cfc}"
         scale="1.00"
         />
   </SceneryObject>
   <SceneryObject
      lat="69.3317328393459"
      lon="87.3713640868664"
      alt="0.0M"
      altitudeIsAgl="TRUE"
      pitch="0"
      bank="0"
      heading="31.7669677734375"
      imageComplexity="VERY_DENSE">
      <LibraryObject
         name="{fe978b1b-6b2f-4898-9e5d-a008e8675ed4}"
         scale="1.00"
         />
   </SceneryObject>
   <Airport
      country="Russia"
      city="Norilsk"
      name="Alykel"
      lat="69.3099999055266"
      lon="87.3333330452442"
      alt="181.356M"
      magvar="-18"
      trafficScalar="0.7"
      airportTestRadius="5000.0M"
      ident="UOOO"
      >
      <Services>
         <Fuel
            type="JETA"
            availability="YES"/>
         <Fuel
            type="JETA1"
            availability="YES"/>
      </Services>
      <Tower
         lat="69.3108769878745"
         lon="87.3295444250107"
         alt="0.0M">
      </Tower>
      <Runway
         lat="69.3099999055266"
         lon="87.3333330452442"
         alt="181.356M"
         surface="CONCRETE"
         heading="31.7700004577637"
         length="3485.69M"
         width="45.11M"
         number="01"
         designator="NONE"
         patternAltitude="304.8M"
         primaryTakeoff="YES"
         primaryLanding="YES"
         primaryPattern="LEFT"
         secondaryTakeoff="YES"
         secondaryLanding="YES"
         secondaryPattern="LEFT">
         <Markings
            alternateThreshold="FALSE"
            alternateTouchdown="FALSE"
            alternateFixedDistance="FALSE"
            alternatePrecision="FALSE"
            leadingZeroIdent="TRUE"
            noThresholdEndArrows="TRUE"
            edges="FALSE"
            threshold="FALSE"
            fixedDistance="FALSE"
            touchdown="FALSE"
            dashes="TRUE"
            ident="TRUE"
            precision="FALSE"
            edgePavement="FALSE"
            singleEnd="FALSE"
            primaryClosed="FALSE"
            secondaryClosed="FALSE"
            primaryStol="FALSE"
            secondaryStol="FALSE"/>
         <Lights
            center="NONE"
            edge="HIGH"
            centerRed="FALSE"/>
         <ApproachLights
            end="PRIMARY"
            system="ALSF1"
            strobes="15"
            reil="FALSE"
            touchdown="FALSE"
            endLights="TRUE"/>
         <ApproachLights
            end="SECONDARY"
            system="ALSF1"
            strobes="15"
            reil="FALSE"
            touchdown="TRUE"
            endLights="TRUE"/>
         <Ils
            lat="69.3317328393459"
            lon="87.3713640868664"
            alt="181.356M"
            heading="31.7700004577637"
            frequency="109.500"
            end="PRIMARY"
            range="50017.0M"
            magvar="-18"
            ident="IAP"
            width="2.67000007629395"
            name="ILS 01"
            backCourse="TRUE">
            <GlideSlope
               lat="69.2989160120487"
               lon="87.3155222833157"
               alt="181.356M"
               pitch="2.67"
               range="50017.0M"/>
         </Ils>
      </Runway>
      <Start
         type="RUNWAY"
         lat="69.2971045151353"
         lon="87.3107676208019"
         alt="181.356M"
         heading="31.7700004577637"
         number="01"
         designator="NONE"/>
      <Start
         type="RUNWAY"
         lat="69.322895295918"
         lon="87.3558989167213"
         alt="181.356M"
         heading="211.770004272461"
         number="19"
         designator="NONE"/>
      <Com
         frequency="121.7000"
         type="GROUND"
         name="NORILSK TAXIING"/>
      <Com
         frequency="120.4000"
         type="APPROACH"
         name="NORILSK KRUG"/>
      <Com
         frequency="118.3000"
         type="TOWER"
         name="NORILSK START"/>
      <BoundaryFence
         profile="{5acb60e6-992b-41c7-929b-e31d5343cd29}">
         <Vertex
            lat="69.2896821722388"
            lon="87.3052480816841"/>
         <Vertex
            lat="69.2920472100377"
            lon="87.2946524620056"/>
         <Vertex
            lat="69.3331312760711"
            lon="87.3665374517441"/>
         <Vertex
            lat="69.330768249929"
            lon="87.3771330714226"/>
         <Vertex
            lat="69.2896821722388"
            lon="87.3052480816841"/>
      </BoundaryFence>
      <Ndb
         lat="69.3316667899489"
         lon="87.3716667294502"
         alt="174.04M"
         type="COMPASS_POINT"
         frequency="0260.00"
         range="41681.0M"
         magvar="-18"
         region="UO"
         ident="B"
         name="ALYKEL (NORILSK)">
      </Ndb>
      <Ndb
         lat="69.3516666814685"
         lon="87.4083334207535"
         alt="174.04M"
         type="HH"
         frequency="0535.00"
         range="208406.0M"
         magvar="-18"
         region="UO"
         ident="BF"
         name="ALYKEL (NORILSK)">
      </Ndb>
      <Ndb
         lat="69.2683334648609"
         lon="87.255000025034"
         alt="181.356M"
         type="HH"
         frequency="0535.00"
         range="208406.0M"
         magvar="-18"
         region="UO"
         ident="AP"
         name="ALYKEL (NORILSK)">
      </Ndb>
   </Airport>
   <Marker
      ident="AP"
      lat="69.2683334648609"
      lon="87.255000025034"
      alt="181.356M"
      type="OUTER"
      heading="31.0588235294118"
      />
   <Marker
      ident="B"
      lat="69.3316667899489"
      lon="87.3716667294502"
      alt="181.356M"
      type="MIDDLE"
      heading="211.764705882353"
      />
   <Marker
      ident="BF"
      lat="69.3516666814685"
      lon="87.4083334207535"
      alt="181.356M"
      type="OUTER"
      heading="211.764705882353"
      />
   <Marker
      lat="69.2900000140071"
      lon="87.294999808073"
      alt="181.356M"
      type="MIDDLE"
      heading="31.0588235294118"
      />
</FSData>
