<FSData version="9.0"><Vor dme="TRUE" dmeOnly="TRUE" lat="65.5620194971561" lon="-167.924141585827" alt="81.991M" type="HIGH" frequency="117.250" range="361237.0M" magvar="-6.93" region="PA" ident="TNC" name="TIN CITY"><Dme lat="65.5620194971561" lon="-167.924141585827" alt="81.991M" range="361237.0M" /></Vor><Vor dme="TRUE" dmeOnly="TRUE" lat="63.7820445746183" lon="-171.736713945866" alt="11.582M" type="HIGH" frequency="114.500" range="361237.0M" magvar="-5.16" region="PA" ident="GAM" name="GAMBELL"><Dme lat="63.7820445746183" lon="-171.736713945866" alt="11.582M" range="361237.0M" /></Vor><Vor dme="TRUE" dmeOnly="FALSE" lat="63.6923112720251" lon="-170.470025092363" alt="115.824M" type="HIGH" frequency="117.300" range="361237.0M" magvar="-5.8" region="PA" ident="ULL" name="KUKULIAK (SAVOONGA)"><Dme lat="63.6923112720251" lon="-170.470025092363" alt="115.824M" range="361237.0M" /></Vor><Vor dme="TRUE" dmeOnly="TRUE" lat="64.5128415897489" lon="-165.433419495821" alt="17.068M" type="HIGH" frequency="113.800" range="361237.0M" magvar="-8.25" region="PA" ident="OYN" name="GOLD (NOME)"><Dme lat="64.5128415897489" lon="-165.433419495821" alt="17.068M" range="361237.0M" /></Vor><Vor dme="TRUE" dmeOnly="FALSE" lat="64.4850971549749" lon="-165.253155827522" alt="30.48M" type="HIGH" frequency="115.000" range="361237.0M" magvar="-8.34" region="PA" ident="OME" name="NOME"><Dme lat="64.4850971549749" lon="-165.253155827522" alt="30.48M" range="361237.0M" /></Vor><Vor dme="TRUE" dmeOnly="TRUE" lat="61.7905778065324" lon="-165.969580560923" alt="114.3M" type="HIGH" frequency="116.750" range="361237.0M" magvar="-8.13" region="PA" ident="CZF" name="CAPE ROMANZOF"><Dme lat="61.7905778065324" lon="-165.969580560923" alt="114.3M" range="361237.0M" /></Vor><Vor dme="TRUE" dmeOnly="FALSE" lat="61.5145500004292" lon="-166.134514063597" alt="53.644M" type="HIGH" frequency="115.200" range="361237.0M" magvar="-8.06" region="PA" ident="HPB" name="HOOPER BAY"><Dme lat="61.5145500004292" lon="-166.134514063597" alt="53.644M" range="361237.0M" /></Vor><Vor dme="TRUE" dmeOnly="TRUE" lat="60.3850305452943" lon="-166.214775145054" alt="10.058M" type="HIGH" frequency="112.900" range="361237.0M" magvar="-8.07" region="PA" ident="AIX" name="NANWAK (MEKORYUK)"><Dme lat="60.3850305452943" lon="-166.214775145054" alt="10.058M" range="361237.0M" /></Vor><Vor dme="TRUE" dmeOnly="TRUE" lat="57.1578251570463" lon="-170.230930745602" alt="13.106M" type="HIGH" frequency="109.900" range="361237.0M" magvar="-6.33" region="PA" ident="SPY" name="SAINT PAUL ISLAND"><Dme lat="57.1578251570463" lon="-170.230930745602" alt="13.106M" range="361237.0M" /></Vor><Vor dme="TRUE" dmeOnly="TRUE" lat="56.5739223361015" lon="-169.647886008024" alt="29.565M" type="HIGH" frequency="114.900" range="361237.0M" magvar="-6.63" region="PA" ident="SRI" name="PRIBILOF (ST. GEORGE)"><Dme lat="56.5739223361015" lon="-169.647886008024" alt="29.565M" range="361237.0M" /></Vor><Vor dme="TRUE" dmeOnly="FALSE" lat="66.8856943398714" lon="-162.539939135313" alt="36.576M" type="HIGH" frequency="115.700" range="361237.0M" magvar="-9.51" region="PA" ident="OTZ" name="KOTZEBUE"><Dme lat="66.8856943398714" lon="-162.539939135313" alt="36.576M" range="361237.0M" /></Vor><Vor dme="TRUE" dmeOnly="FALSE" lat="64.6965138986707" lon="-162.071188688278" alt="4.267M" type="LOW" frequency="116.300" range="111150.0M" magvar="-9.87" region="PA" ident="MOS" name="MOSES POINT (ELIM)"><Dme lat="64.6965138986707" lon="-162.071188688278" alt="4.267M" range="111150.0M" /></Vor><Vor dme="TRUE" dmeOnly="FALSE" lat="66.5999612957239" lon="-159.991586208344" alt="3.352M" type="HIGH" frequency="114.200" range="361237.0M" magvar="-10.77" region="PA" ident="WLK" name="SELAWIK"><Dme lat="66.5999612957239" lon="-159.991586208344" alt="3.352M" range="361237.0M" /></Vor><Vor dme="TRUE" dmeOnly="TRUE" lat="67.1062084659934" lon="-157.856561243534" alt="85.953M" type="HIGH" frequency="116.100" range="361237.0M" magvar="-11.75" region="PA" ident="AMF" name="AMBLER"><Dme lat="67.1062084659934" lon="-157.856561243534" alt="85.953M" range="361237.0M" /></Vor><Vor dme="TRUE" dmeOnly="TRUE" lat="65.9798000380397" lon="-161.149383187294" alt="7.924M" type="HIGH" frequency="113.100" range="361237.0M" magvar="-10.25" region="PA" ident="BVK" name="BUCKLAND"><Dme lat="65.9798000380397" lon="-161.149383187294" alt="7.924M" range="361237.0M" /></Vor><Vor dme="TRUE" dmeOnly="TRUE" lat="64.932177811861" lon="-161.148727834225" alt="312.724M" type="HIGH" frequency="113.600" range="361237.0M" magvar="-10.3" region="PA" ident="KKA" name="KOYUK"><Dme lat="64.932177811861" lon="-161.148727834225" alt="312.724M" range="361237.0M" /></Vor><Vor dme="TRUE" dmeOnly="FALSE" lat="62.7833807095885" lon="-164.487713724375" alt="4.267M" type="HIGH" frequency="117.800" range="361237.0M" magvar="-8.79" region="PA" ident="ENM" name="EMMONAK"><Dme lat="62.7833807095885" lon="-164.487713724375" alt="4.267M" range="361237.0M" /></Vor><Vor dme="TRUE" dmeOnly="FALSE" lat="63.8919444009662" lon="-160.68433329463" alt="131.064M" type="HIGH" frequency="116.900" range="361237.0M" magvar="-10.55" region="PA" ident="UNK" name="UNALAKLEET"><Dme lat="63.8919444009662" lon="-160.68433329463" alt="131.064M" range="361237.0M" /></Vor><Vor dme="TRUE" dmeOnly="TRUE" lat="62.6478916034102" lon="-160.19628033042" alt="109.118M" type="HIGH" frequency="112.400" range="361237.0M" magvar="-10.8" region="PA" ident="ANV" name="ANVIK"><Dme lat="62.6478916034102" lon="-160.19628033042" alt="109.118M" range="361237.0M" /></Vor><Vor dme="TRUE" dmeOnly="FALSE" lat="65.7060832902789" lon="-156.37204438448" alt="37.185M" type="HIGH" frequency="117.400" range="361237.0M" magvar="-12.48" region="PA" ident="HSL" name="HUSLIA"><Dme lat="65.7060832902789" lon="-156.37204438448" alt="37.185M" range="361237.0M" /></Vor><Vor dme="TRUE" dmeOnly="FALSE" lat="64.738155528903" lon="-156.777147352695" alt="39.624M" type="HIGH" frequency="114.800" range="361237.0M" magvar="-12.32" region="PA" ident="GAL" name="GALENA"><Dme lat="64.738155528903" lon="-156.777147352695" alt="39.624M" range="361237.0M" /></Vor><Vor dme="TRUE" dmeOnly="FALSE" lat="66.9050082564354" lon="-151.535888761282" alt="196.596M" type="HIGH" frequency="116.000" range="361237.0M" magvar="-14.56" region="PA" ident="BTT" name="BETTLES"><Dme lat="66.9050082564354" lon="-151.535888761282" alt="196.596M" range="361237.0M" /></Vor><Vor dme="TRUE" dmeOnly="FALSE" lat="65.1771446317434" lon="-152.177555412054" alt="118.872M" type="HIGH" frequency="116.600" range="361237.0M" magvar="-14.29" region="PA" ident="TAL" name="TANANA"><Dme lat="65.1771446317434" lon="-152.177555412054" alt="118.872M" range="361237.0M" /></Vor><Vor dme="TRUE" dmeOnly="FALSE" lat="62.9510415717959" lon="-155.611402988434" alt="103.632M" type="HIGH" frequency="115.500" range="361237.0M" magvar="-12.83" region="PA" ident="MCG" name="MC GRATH"><Dme lat="62.9510415717959" lon="-155.611402988434" alt="103.632M" range="361237.0M" /></Vor><Vor dme="TRUE" dmeOnly="FALSE" lat="62.2986582666636" lon="-150.105591416359" alt="109.728M" type="HIGH" frequency="116.200" range="361237.0M" magvar="-15.01" region="PA" ident="TKA" name="TALKEETNA"><Dme lat="62.2986582666636" lon="-150.105591416359" alt="109.728M" range="361237.0M" /></Vor><Vor dme="TRUE" dmeOnly="FALSE" lat="60.7848305627704" lon="-161.82429715991" alt="39.624M" type="HIGH" frequency="114.100" range="361237.0M" magvar="-10.09" region="PA" ident="BET" name="BETHEL"><Dme lat="60.7848305627704" lon="-161.82429715991" alt="39.624M" range="361237.0M" /></Vor><Vor dme="TRUE" dmeOnly="FALSE" lat="59.9428194388747" lon="-164.034366756678" alt="0.304M" type="HIGH" frequency="115.900" range="361237.0M" magvar="-9.09" region="PA" ident="IIK" name="KIPNUK"><Dme lat="59.9428194388747" lon="-164.034366756678" alt="0.304M" range="361237.0M" /></Vor><Vor dme="TRUE" dmeOnly="TRUE" lat="59.0640835091472" lon="-160.374083518982" alt="18.288M" type="HIGH" frequency="116.700" range="361237.0M" magvar="-10.74" region="PA" ident="TOG" name="TOGIAK"><Dme lat="59.0640835091472" lon="-160.374083518982" alt="18.288M" range="361237.0M" /></Vor><Vor dme="TRUE" dmeOnly="FALSE" lat="58.9942250400782" lon="-158.552241772413" alt="39.624M" type="HIGH" frequency="116.400" range="361237.0M" magvar="-11.52" region="PA" ident="DLG" name="DILLINGHAM"><Dme lat="58.9942250400782" lon="-158.552241772413" alt="39.624M" range="361237.0M" /></Vor><Vor dme="TRUE" dmeOnly="TRUE" lat="56.9542223587632" lon="-158.647630512714" alt="26.212M" type="HIGH" frequency="109.500" range="361237.0M" magvar="-11.44" region="PA" ident="PDN" name="PORT HEIDEN"><Dme lat="56.9542223587632" lon="-158.647630512714" alt="26.212M" range="361237.0M" /></Vor><Vor dme="TRUE" dmeOnly="FALSE" lat="61.0984807088971" lon="-155.634508430958" alt="762.304M" type="HIGH" frequency="117.200" range="361237.0M" magvar="-12.78" region="PA" ident="SQA" name="SPARREVOHN"><Dme lat="61.0984807088971" lon="-155.634508430958" alt="762.304M" range="361237.0M" /></Vor><Vor dme="TRUE" dmeOnly="TRUE" lat="59.7479582950473" lon="-154.909605681896" alt="63.703M" type="HIGH" frequency="114.400" range="361237.0M" magvar="-13.03" region="PA" ident="ILI" name="ILIAMNA"><Dme lat="59.7479582950473" lon="-154.909605681896" alt="63.703M" range="361237.0M" /></Vor><Vor dme="TRUE" dmeOnly="FALSE" lat="60.6147027388215" lon="-151.195241510868" alt="34.747M" type="HIGH" frequency="117.600" range="361237.0M" magvar="-14.51" region="PA" ident="ENA" name="KENAI"><Dme lat="60.6147027388215" lon="-151.195241510868" alt="34.747M" range="361237.0M" /></Vor><Vor dme="TRUE" dmeOnly="FALSE" lat="61.1507998779416" lon="-150.206555575132" alt="87.477M" type="HIGH" frequency="114.300" range="361237.0M" magvar="-14.91" region="PA" ident="ANC" name="ANCHORAGE"><Dme lat="61.1507998779416" lon="-150.206555575132" alt="87.477M" range="361237.0M" /></Vor><Vor dme="TRUE" dmeOnly="TRUE" lat="60.4749861359596" lon="-150.87888032198" alt="76.2M" type="HIGH" frequency="115.900" range="361237.0M" magvar="-14.62" region="PA" ident="OLT" name="SOLDOTNA"><Dme lat="60.4749861359596" lon="-150.87888032198" alt="76.2M" range="361237.0M" /></Vor><Vor dme="TRUE" dmeOnly="FALSE" lat="59.7094307094812" lon="-151.456599980593" alt="493.776M" type="HIGH" frequency="114.600" range="361237.0M" magvar="-14.35" region="PA" ident="HOM" name="HOMER"><Dme lat="59.7094307094812" lon="-151.456599980593" alt="493.776M" range="361237.0M" /></Vor><Vor dme="TRUE" dmeOnly="FALSE" lat="58.7246888503432" lon="-156.752111166716" alt="24.384M" type="HIGH" frequency="112.800" range="361237.0M" magvar="-12.26" region="PA" ident="AKN" name="KING SALMON"><Dme lat="58.7246888503432" lon="-156.752111166716" alt="24.384M" range="361237.0M" /></Vor><Vor dme="TRUE" dmeOnly="FALSE" lat="57.775024920702" lon="-152.339783459902" alt="39.624M" type="HIGH" frequency="117.100" range="361237.0M" magvar="-13.91" region="PA" ident="ODK" name="KODIAK"><Dme lat="57.775024920702" lon="-152.339783459902" alt="39.624M" range="361237.0M" /></Vor><Vor dme="TRUE" dmeOnly="TRUE" lat="51.8712944537401" lon="-176.674097031355" alt="101.193M" type="HIGH" frequency="114.000" range="361237.0M" magvar="-3.82" region="PA" ident="ADK" name="MOUNT MOFFETT"><Dme lat="51.8712944537401" lon="-176.674097031355" alt="101.193M" range="361237.0M" /></Vor><Vor dme="TRUE" dmeOnly="TRUE" lat="51.8713085353374" lon="-176.674119383097" alt="115.519M" type="HIGH" frequency="113.000" range="361237.0M" magvar="-3.82" region="PA" ident="NUD" name="ADAK"><Dme lat="51.8713085353374" lon="-176.674119383097" alt="115.519M" range="361237.0M" /></Vor><Vor dme="TRUE" dmeOnly="TRUE" lat="53.9051723107696" lon="-166.549144238234" alt="84.734M" type="HIGH" frequency="113.900" range="361237.0M" magvar="-8.13" region="PA" ident="DUT" name="DUTCH HARBOR"><Dme lat="53.9051723107696" lon="-166.549144238234" alt="84.734M" range="361237.0M" /></Vor><Vor dme="TRUE" dmeOnly="FALSE" lat="55.267377756536" lon="-162.774239033461" alt="29.565M" type="HIGH" frequency="112.600" range="361237.0M" magvar="-9.71" region="PA" ident="CDB" name="COLD BAY"><Dme lat="55.267377756536" lon="-162.774239033461" alt="29.565M" range="361237.0M" /></Vor><Vor dme="TRUE" dmeOnly="TRUE" lat="55.3155666589737" lon="-160.518402904272" alt="40.233M" type="HIGH" frequency="113.200" range="361237.0M" magvar="-10.65" region="PA" ident="HBT" name="BORLAND"><Dme lat="55.3155666589737" lon="-160.518402904272" alt="40.233M" range="361237.0M" /></Vor><Ndb lat="65.5166666954756" lon="-179.283333420753" alt="1.219M" type="H" frequency="0400.00" range="138937.0M" magvar="-1.11" region="UH" ident="NB" name="UELKAL" /><Ndb lat="64.3766668438911" lon="-173.243333101273" alt="21.64M" type="H" frequency="0960.00" range="138937.0M" magvar="-4.34" region="UH" ident="BC" name="PROVIDENIYA BAY" /><Ndb lat="65.5833333358169" lon="-171.01333335042" alt="13.106M" type="HH" frequency="0445.00" range="208406.0M" magvar="-5.36" region="UH" ident="LA" name="LAVRENTIYA" /><Ndb lat="66.2581667304039" lon="-166.052502840757" alt="2.438M" type="H" frequency="0365.00" range="138937.0M" magvar="-7.82" region="PA" ident="SHH" name="SHISHMAREF" /><Ndb lat="65.5620194971561" lon="-167.924141585827" alt="81.991M" type="H" frequency="0347.00" range="138937.0M" magvar="-6.93" region="PA" ident="TNC" name="TIN CITY" /><Ndb lat="63.7820445746183" lon="-171.736713945866" alt="11.582M" type="MH" frequency="0369.00" range="69469.0M" magvar="-5.16" region="PA" ident="GAM" name="GAMBELL" /><Ndb lat="64.4945972040296" lon="-165.313986092806" alt="31.699M" type="H" frequency="0529.00" range="138937.0M" magvar="-8.31" region="PA" ident="FDV" name="FORT DAVIS (NOME)" /><Ndb lat="64.5128415897489" lon="-165.433419495821" alt="17.068M" type="MH" frequency="0208.00" range="69469.0M" magvar="-8.25" region="PA" ident="OYN" name="GOLD (NOME)" /><Ndb lat="61.7905778065324" lon="-165.969580560923" alt="424.281M" type="H" frequency="0275.00" range="138937.0M" magvar="-8.13" region="PA" ident="CZF" name="CAPE ROMANZOF" /><Ndb lat="60.3850305452943" lon="-166.214775145054" alt="10.058M" type="MH" frequency="0323.00" range="69469.0M" magvar="-8.07" region="PA" ident="AIX" name="NANWAK (MEKORYUK)" /><Ndb lat="57.1578251570463" lon="-170.230930745602" alt="13.106M" type="H" frequency="0314.00" range="138937.0M" magvar="-6.33" region="PA" ident="SPY" name="SAINT PAUL ISLAND" /><Ndb lat="56.5739223361015" lon="-169.647886008024" alt="29.565M" type="H" frequency="0399.00" range="138937.0M" magvar="-6.63" region="PA" ident="SRI" name="PRIBILOF (ST. GEORGE)" /><Ndb lat="66.9012528285384" lon="-162.564386129379" alt="49.682M" type="H" frequency="0356.00" range="138937.0M" magvar="-9.5" region="PA" ident="HHM" name="HOTHAM (KOTZEBUE)" /><Ndb lat="64.6960693225265" lon="-162.062910944223" alt="3.962M" type="H" frequency="0263.00" range="138937.0M" magvar="-9.87" region="PA" ident="OAY" name="NORTON BAY (MOSES PT)" /><Ndb lat="67.1067610010505" lon="-157.857997119427" alt="85.953M" type="H" frequency="0403.00" range="138937.0M" magvar="-11.75" region="PA" ident="AMF" name="AMBLER" /><Ndb lat="65.9798000380397" lon="-161.149383187294" alt="7.924M" type="MH" frequency="0325.00" range="69469.0M" magvar="-10.25" region="PA" ident="BVK" name="BUCKLAND" /><Ndb lat="64.9319860339165" lon="-161.1478972435" alt="12.192M" type="MH" frequency="0299.00" range="69469.0M" magvar="-10.3" region="PA" ident="KKA" name="KOYUK" /><Ndb lat="62.0583749189973" lon="-163.291611224413" alt="92.049M" type="H" frequency="0230.00" range="138937.0M" magvar="-9.38" region="PA" ident="SMA" name="SAINT MARY'S" /><Ndb lat="63.9077221602201" lon="-160.811944305897" alt="3.048M" type="H" frequency="0382.00" range="138937.0M" magvar="-10.49" region="PA" ident="JNR" name="NORTH RIVER (UNALAKLEET)" /><Ndb lat="62.6414056867361" lon="-160.190022289753" alt="96.316M" type="H" frequency="0365.00" range="138937.0M" magvar="-10.8" region="PA" ident="ANV" name="ANVIK" /><Ndb lat="64.7358528524637" lon="-156.793380528688" alt="44.196M" type="H" frequency="0331.00" range="138937.0M" magvar="-12.31" region="PA" ident="BZP" name="BISHOP (GALENA)" /><Ndb lat="66.8932028487325" lon="-151.56374707818" alt="189.89M" type="H" frequency="0391.00" range="138937.0M" magvar="-14.55" region="PA" ident="EAV" name="EVANSVILLE (BETTLES)" /><Ndb lat="66.817602775991" lon="-150.634072422981" alt="333.756M" type="MH" frequency="0340.00" range="69469.0M" magvar="-14.93" region="PA" ident="PPC" name="PROSPECT CREEK" /><Ndb lat="65.9919611737132" lon="-153.721233308315" alt="371.856M" type="H" frequency="0272.00" range="138937.0M" magvar="-13.64" region="PA" ident="UTO" name="UTOPIA CREEK (INDIAN MT)" /><Ndb lat="65.1738944649696" lon="-152.205941677094" alt="98.145M" type="H" frequency="0212.00" range="138937.0M" magvar="-14.28" region="PA" ident="BCC" name="BEAR CREEK" /><Ndb lat="62.9468750953674" lon="-155.557316690683" alt="100.888M" type="H" frequency="0350.00" range="138937.0M" magvar="-12.85" region="PA" ident="VTR" name="TAKOTNA RIVER (MC GRATH)" /><Ndb lat="63.8838971033692" lon="-152.316511273384" alt="216.103M" type="H" frequency="0227.00" range="138937.0M" magvar="-14.22" region="PA" ident="MHM" name="MINCHUMINA" /><Ndb lat="62.331161275506" lon="-150.096424967051" alt="165.811M" type="H" frequency="0305.00" range="138937.0M" magvar="-15.02" region="PA" ident="PEE" name="PETERS CREEK (TALKEETNA)" /><Ndb lat="60.7966363057494" lon="-161.821408420801" alt="14.325M" type="MH" frequency="0344.00" range="69469.0M" magvar="-10.09" region="PA" ident="ET" name="BETHEL" /><Ndb lat="60.7913027331233" lon="-161.872714161873" alt="43.586M" type="HH" frequency="0251.00" range="208406.0M" magvar="-10.06" region="PA" ident="OSE" name="OSCARVILLE (BETHEL)" /><Ndb lat="61.590169519186" lon="-159.597908556461" alt="29.26M" type="H" frequency="0359.00" range="138937.0M" magvar="-11.08" region="PA" ident="ANI" name="ANIAK" /><Ndb lat="59.0640835091472" lon="-160.374083518982" alt="18.288M" type="H" frequency="0393.00" range="138937.0M" magvar="-10.74" region="PA" ident="TOG" name="TOGIAK" /><Ndb lat="58.6558724194765" lon="-162.075833380222" alt="117.348M" type="H" frequency="0385.00" range="138937.0M" magvar="-9.99" region="PA" ident="EHM" name="CAPE NEWENHAM" /><Ndb lat="58.9996695891023" lon="-158.548380732536" alt="42.062M" type="MH" frequency="0429.00" range="69469.0M" magvar="-11.52" region="PA" ident="BTS" name="WOOD RIVER (DILLINGHAM)" /><Ndb lat="56.9540278986096" lon="-158.648852705956" alt="24.688M" type="H" frequency="0371.00" range="138937.0M" magvar="-11.44" region="PA" ident="PDN" name="PORT HEIDEN" /><Ndb lat="61.0993138700724" lon="-155.552283525467" alt="519.988M" type="H" frequency="0281.00" range="138937.0M" magvar="-12.81" region="PA" ident="CRN" name="CAIRN MOUNTAIN (SPARREVOHN)" /><Ndb lat="59.7479582950473" lon="-154.909605681896" alt="51.206M" type="H" frequency="0411.00" range="138937.0M" magvar="-13.03" region="PA" ident="ILI" name="ILIAMNA" /><Ndb lat="60.598680563271" lon="-151.211202889681" alt="28.041M" type="H" frequency="0379.00" range="138937.0M" magvar="-14.5" region="PA" ident="IWW" name="WILDWOOD (KENAI)" /><Ndb lat="61.167847327888" lon="-150.177125036716" alt="85.039M" type="MH" frequency="0387.00" range="69469.0M" magvar="-14.92" region="PA" ident="BOB" name="BRUCK (ANCHORAGE)" /><Ndb lat="60.4749861359596" lon="-150.87888032198" alt="76.2M" type="MH" frequency="0346.00" range="69469.0M" magvar="-14.62" region="PA" ident="OLT" name="SOLDOTNA" /><Ndb lat="61.1710223928094" lon="-150.047699958086" alt="17.373M" type="H" frequency="0338.00" range="138937.0M" magvar="-14.97" region="PA" ident="CMQ" name="CAMPBELL LAKE (ANCHORAGE)" /><Ndb lat="59.6413334459066" lon="-151.500275284052" alt="25.603M" type="H" frequency="0277.00" range="138937.0M" magvar="-14.34" region="PA" ident="ACE" name="KACHEMAK (HOMER)" /><Ndb lat="58.7373555824161" lon="-156.777777671814" alt="21.336M" type="H" frequency="0355.00" range="138937.0M" magvar="-12.25" region="PA" ident="AK" name="SALDO (KING SALMON)" /><Ndb lat="59.017716832459" lon="-155.600380450487" alt="201.168M" type="MH" frequency="0334.00" range="69469.0M" magvar="-12.73" region="PA" ident="HCP" name="KULIK LAKE" /><Ndb lat="57.7744693681598" lon="-152.323144376278" alt="4.572M" type="H" frequency="0394.00" range="138937.0M" magvar="-13.91" region="PA" ident="RWO" name="WOODY ISLAND (KODIAK)" /><Ndb lat="51.8718972802162" lon="-176.676008105278" alt="101.193M" type="H" frequency="0530.00" range="138937.0M" magvar="-3.81" region="PA" ident="ADK" name="MOUNT MOFFET" /><Ndb lat="53.9051723107696" lon="-166.549144238234" alt="86.563M" type="H" frequency="0283.00" range="138937.0M" magvar="-8.13" region="PA" ident="DUT" name="DUTCH HARBOR" /><Ndb lat="55.2960723638535" lon="-162.789074778557" alt="10.972M" type="MH" frequency="0341.00" range="69469.0M" magvar="-9.7" region="PA" ident="CD" name="ELFEE (COLD BAY)" /><Ndb lat="55.3155666589737" lon="-160.518402904272" alt="40.233M" type="H" frequency="0390.00" range="138937.0M" magvar="-10.65" region="PA" ident="HBT" name="BORLAND" /></FSData>