<?xml version="1.0" encoding="ISO-8859-1"?>
<!-- Created by Scenery Design Engine (SDE) on 3/16/2025 -->
<FSData
   version="9.0"
   xmlns:xsi="http://www.w3.org/2001/XMLSchema-instance"
   xsi:noNamespaceSchemaLocation="bglcomp.xsd">
   <SceneryObject
      lat="-45.4969415813684"
      lon="167.718322277069"
      alt="0.0M"
      altitudeIsAgl="TRUE"
      pitch="0"
      bank="0"
      heading="0"
      imageComplexity="NORMAL">
      <LibraryObject
         name="{5a003f36-68dd-4f97-b0b3-616863779a85}"
         scale="1.00"
         />
   </SceneryObject>
   <SceneryObject
      lat="-45.4969415813684"
      lon="167.718322277069"
      alt="0.0M"
      altitudeIsAgl="TRUE"
      pitch="0"
      bank="0"
      heading="0"
      imageComplexity="NORMAL">
      <LibraryObject
         name="{26546ab7-a46d-410e-8586-4a8fc8749929}"
         scale="1.00"
         />
   </SceneryObject>
   <SceneryObject
      lat="-45.0226720422506"
      lon="168.737883120775"
      alt="0.0M"
      altitudeIsAgl="TRUE"
      pitch="0"
      bank="0"
      heading="0"
      imageComplexity="NORMAL">
      <LibraryObject
         name="{5a003f36-68dd-4f97-b0b3-616863779a85}"
         scale="1.00"
         />
   </SceneryObject>
   <SceneryObject
      lat="-46.4115611091256"
      lon="168.317608237267"
      alt="0.0M"
      altitudeIsAgl="TRUE"
      pitch="0"
      bank="0"
      heading="0"
      imageComplexity="NORMAL">
      <LibraryObject
         name="{c0b537c3-808a-48ba-8eff-e1ca1a872e84}"
         scale="1.00"
         />
   </SceneryObject>
   <SceneryObject
      lat="-46.4187249541283"
      lon="168.332638889551"
      alt="0.0M"
      altitudeIsAgl="TRUE"
      pitch="0"
      bank="0"
      heading="0"
      imageComplexity="NORMAL">
      <LibraryObject
         name="{2fb72c66-290c-4727-b970-da20984cee83}"
         scale="1.00"
         />
   </SceneryObject>
   <SceneryObject
      lat="-45.1655388996005"
      lon="169.479846954346"
      alt="0.0M"
      altitudeIsAgl="TRUE"
      pitch="0"
      bank="0"
      heading="0"
      imageComplexity="NORMAL">
      <LibraryObject
         name="{26546ab7-a46d-410e-8586-4a8fc8749929}"
         scale="1.00"
         />
   </SceneryObject>
   <SceneryObject
      lat="-45.1655388996005"
      lon="169.479846954346"
      alt="0.0M"
      altitudeIsAgl="TRUE"
      pitch="0"
      bank="0"
      heading="0"
      imageComplexity="NORMAL">
      <LibraryObject
         name="{2fb72c66-290c-4727-b970-da20984cee83}"
         scale="1.00"
         />
   </SceneryObject>
   <SceneryObject
      lat="-46.0278248414397"
      lon="169.983225166798"
      alt="0.0M"
      altitudeIsAgl="TRUE"
      pitch="0"
      bank="0"
      heading="0"
      imageComplexity="NORMAL">
      <LibraryObject
         name="{2fb72c66-290c-4727-b970-da20984cee83}"
         scale="1.00"
         />
   </SceneryObject>
   <SceneryObject
      lat="-45.8713833242655"
      lon="170.320152640343"
      alt="0.0M"
      altitudeIsAgl="TRUE"
      pitch="0"
      bank="0"
      heading="0"
      imageComplexity="NORMAL">
      <LibraryObject
         name="{2fb72c66-290c-4727-b970-da20984cee83}"
         scale="1.00"
         />
   </SceneryObject>
   <SceneryObject
      lat="-45.7969694584608"
      lon="170.477308183908"
      alt="0.0M"
      altitudeIsAgl="TRUE"
      pitch="0"
      bank="0"
      heading="0"
      imageComplexity="NORMAL">
      <LibraryObject
         name="{2fb72c66-290c-4727-b970-da20984cee83}"
         scale="1.00"
         />
   </SceneryObject>
   <SceneryObject
      lat="-45.7945192605257"
      lon="170.477194190025"
      alt="0.0M"
      altitudeIsAgl="TRUE"
      pitch="0"
      bank="0"
      heading="0"
      imageComplexity="NORMAL">
      <LibraryObject
         name="{047814f7-e832-45fc-b5a0-4f047f8234b0}"
         scale="1.00"
         />
   </SceneryObject>
   <SceneryObject
      lat="-45.9458833560348"
      lon="170.161930471659"
      alt="0.0M"
      altitudeIsAgl="TRUE"
      pitch="0"
      bank="0"
      heading="0"
      imageComplexity="NORMAL">
      <LibraryObject
         name="{2fb72c66-290c-4727-b970-da20984cee83}"
         scale="1.00"
         />
   </SceneryObject>
   <SceneryObject
      lat="-45.9458833560348"
      lon="170.161930471659"
      alt="0.0M"
      altitudeIsAgl="TRUE"
      pitch="0"
      bank="0"
      heading="0"
      imageComplexity="NORMAL">
      <LibraryObject
         name="{26546ab7-a46d-410e-8586-4a8fc8749929}"
         scale="1.00"
         />
   </SceneryObject>
   <Vor
      dme="TRUE"
      dmeOnly="TRUE"
      lat="-45.4969415813684"
      lon="167.718322277069"
      alt="239.572M"
      type="HIGH"
      frequency="117.800"
      range="361237.0M"
      magvar="0"
      region="NZ"
      ident="MO"
      name="MANAPOURI">
      <Dme
         lat="-45.4969415813684"
         lon="167.718322277069"
         alt="239.572M"
         range="361237.0M"/>
   </Vor>
   <Vor
      dme="TRUE"
      dmeOnly="FALSE"
      lat="-46.4115611091256"
      lon="168.317608237267"
      alt="4.572M"
      type="HIGH"
      frequency="116.800"
      range="361237.0M"
      magvar="-25"
      region="NZ"
      ident="NV"
      name="INVERCARGILL">
      <Dme
         lat="-46.4115611091256"
         lon="168.317608237267"
         alt="4.572M"
         range="361237.0M"/>
   </Vor>
   <Vor
      dme="TRUE"
      dmeOnly="TRUE"
      lat="-45.1655388996005"
      lon="169.479846954346"
      alt="243.84M"
      type="HIGH"
      frequency="117.100"
      range="361237.0M"
      magvar="0"
      region="NZ"
      ident="LX"
      name="ALEXANDRA">
      <Dme
         lat="-45.1655388996005"
         lon="169.479846954346"
         alt="243.84M"
         range="361237.0M"/>
   </Vor>
   <Vor
      dme="TRUE"
      dmeOnly="FALSE"
      lat="-45.7945192605257"
      lon="170.477194190025"
      alt="743.102M"
      type="HIGH"
      frequency="112.700"
      range="361237.0M"
      magvar="-25"
      region="NZ"
      ident="SW"
      name="SWAMPY (DUNEDIN)">
      <Dme
         lat="-45.7945192605257"
         lon="170.477194190025"
         alt="743.102M"
         range="361237.0M"/>
   </Vor>
   <Vor
      dme="TRUE"
      dmeOnly="TRUE"
      lat="-45.9458833560348"
      lon="170.161930471659"
      alt="39.928M"
      type="HIGH"
      frequency="115.700"
      range="361237.0M"
      magvar="0"
      region="NZ"
      ident="HL"
      name="HENLEY (DUNEDIN)">
      <Dme
         lat="-45.9458833560348"
         lon="170.161930471659"
         alt="39.928M"
         range="361237.0M"/>
   </Vor>
   <Ndb
      lat="-45.4969415813684"
      lon="167.718322277069"
      alt="312.724M"
      type="H"
      frequency="0346.00"
      range="138937.0M"
      magvar="-23"
      region="NZ"
      ident="MO"
      name="MANAPOURI">
   </Ndb>
   <Ndb
      lat="-45.0226720422506"
      lon="168.737883120775"
      alt="356.616M"
      type="H"
      frequency="0362.00"
      range="138937.0M"
      magvar="-24"
      region="NZ"
      ident="QN"
      name="QUEENSTOWN">
   </Ndb>
   <Ndb
      lat="-46.4187249541283"
      lon="168.332638889551"
      alt="1.828M"
      type="H"
      frequency="0214.00"
      range="138937.0M"
      magvar="-25"
      region="NZ"
      ident="NV"
      name="INVERCARGILL">
   </Ndb>
   <Ndb
      lat="-45.1655388996005"
      lon="169.479846954346"
      alt="235.305M"
      type="MH"
      frequency="0386.00"
      range="69469.0M"
      magvar="-24"
      region="NZ"
      ident="LX"
      name="ALEXANDRA">
   </Ndb>
   <Ndb
      lat="-45.8713833242655"
      lon="170.320152640343"
      alt="11.582M"
      type="MH"
      frequency="0358.00"
      range="69469.0M"
      magvar="-25"
      region="NZ"
      ident="MI"
      name="MOSGIEL (DUNEDIN)">
   </Ndb>
   <Ndb
      lat="-45.9458833560348"
      lon="170.161930471659"
      alt="1.524M"
      type="H"
      frequency="0378.00"
      range="138937.0M"
      magvar="-25"
      region="NZ"
      ident="HL"
      name="HENLEY (DUNEDIN)">
   </Ndb>
   <Ndb
      lat="-45.7969694584608"
      lon="170.477308183908"
      alt="724.509M"
      type="H"
      frequency="0338.00"
      range="138937.0M"
      magvar="-25"
      region="NZ"
      ident="SW"
      name="SWAMPY (DUNEDIN)">
   </Ndb>
   <Ndb
      lat="-46.0278248414397"
      lon="169.983225166798"
      alt="191.109M"
      type="H"
      frequency="0394.00"
      range="138937.0M"
      magvar="-25"
      region="NZ"
      ident="BE"
      name="BERRIDALE (DUNEDIN)">
   </Ndb>
</FSData>
