<FSData version="9.0"><Vor dme="FALSE" dmeOnly="FALSE" lat="-23.900758177042" lon="31.1519694328308" alt="465.734M" type="HIGH" frequency="115.300" range="361237.0M" magvar="17.27" region="FA" ident="PHV" name="PHALABORWA" /><Vor dme="TRUE" dmeOnly="FALSE" lat="-24.3472028151155" lon="31.04760825634" alt="507.187M" type="HIGH" frequency="114.000" range="361237.0M" magvar="17.93" region="FA" ident="HSV" name="HOEDSPRUIT"><Dme lat="-24.3472028151155" lon="31.04760825634" alt="507.187M" range="361237.0M" /></Vor><Vor dme="TRUE" dmeOnly="FALSE" lat="-25.4982389509678" lon="30.9156721830368" alt="867.46M" type="HIGH" frequency="116.200" range="361237.0M" magvar="19.68" region="FA" ident="NSV" name="NELSPRUIT"><Dme lat="-25.4982389509678" lon="30.9156721830368" alt="867.46M" range="361237.0M" /></Vor><Vor dme="TRUE" dmeOnly="FALSE" lat="-26.511944308877" lon="31.3236111402512" alt="632.46M" type="HIGH" frequency="112.300" range="361237.0M" magvar="21.47" region="FD" ident="VMS" name="MATSAPHA (MANZINI)"><Dme lat="-26.511944308877" lon="31.3236111402512" alt="632.46M" range="361237.0M" /></Vor><Vor dme="TRUE" dmeOnly="FALSE" lat="-25.8683335036039" lon="32.6049998402596" alt="54.864M" type="HIGH" frequency="112.700" range="361237.0M" magvar="20.98" region="FQ" ident="VMA" name="MAPUTO"><Dme lat="-25.8683335036039" lon="32.6049998402596" alt="54.864M" range="361237.0M" /></Vor><Vor dme="TRUE" dmeOnly="TRUE" lat="-28.3150556311011" lon="31.4205555617809" alt="521.817M" type="HIGH" frequency="115.400" range="361237.0M" magvar="24.36" region="FA" ident="UL" name="ULUNDI"><Dme lat="-28.3150556311011" lon="31.4205555617809" alt="521.817M" range="361237.0M" /></Vor><Vor dme="FALSE" dmeOnly="FALSE" lat="-29.1235445067286" lon="30.5861721932888" alt="1119.53M" type="HIGH" frequency="113.500" range="361237.0M" magvar="25.24" region="FA" ident="GYV" name="GREYTOWN" /><Vor dme="TRUE" dmeOnly="FALSE" lat="-28.7406833097339" lon="32.0935414731503" alt="28.346M" type="HIGH" frequency="113.000" range="361237.0M" magvar="25.32" region="FA" ident="RBV" name="RICHARDS BAY"><Dme lat="-28.7406833097339" lon="32.0935414731503" alt="28.346M" range="361237.0M" /></Vor><Vor dme="TRUE" dmeOnly="FALSE" lat="-29.6478137746453" lon="30.4003554582596" alt="738.53M" type="HIGH" frequency="117.900" range="361237.0M" magvar="25.95" region="FA" ident="PMV" name="PIETERMARITZBURG"><Dme lat="-29.6478137746453" lon="30.4003554582596" alt="738.53M" range="361237.0M" /></Vor><Vor dme="TRUE" dmeOnly="FALSE" lat="-29.9721555411816" lon="30.9511917829514" alt="6.4M" type="HIGH" frequency="112.500" range="361237.0M" magvar="26.69" region="FA" ident="DNV" name="DURBAN"><Dme lat="-29.9721555411816" lon="30.9511917829514" alt="6.4M" range="361237.0M" /></Vor><Ndb lat="-22.9666668176651" lon="30.4833336174488" alt="603.199M" type="H" frequency="0325.00" range="138937.0M" magvar="15.58" region="FA" ident="THO" name="THOHOYANDOU" /><Ndb lat="-23.0749998986721" lon="30.3144443035126" alt="631.545M" type="H" frequency="0285.00" range="138937.0M" magvar="15.68" region="FA" ident="TOY" name="THOHOYANDOU" /><Ndb lat="-22.5091667845845" lon="30.9491667151451" alt="373.684M" type="H" frequency="0252.50" range="138937.0M" magvar="15.08" region="FA" ident="TSH" name="TSHIKONDENI" /><Ndb lat="-23.8022889196873" lon="30.360841602087" alt="510.844M" type="H" frequency="0212.50" range="138937.0M" magvar="16.81" region="FA" ident="TZ" name="TZANEEN" /><Ndb lat="-23.3261109888554" lon="30.6805555522442" alt="466.039M" type="H" frequency="0430.00" range="138937.0M" magvar="16.2" region="FA" ident="GI" name="GIYANI" /><Ndb lat="-23.9000001177192" lon="30.6833334267139" alt="549.554M" type="H" frequency="0402.50" range="138937.0M" magvar="17.09" region="FA" ident="JP" name="GRAVELOTTE" /><Ndb lat="-24.1513888165355" lon="30.8347222208977" alt="436.473M" type="HH" frequency="0395.00" range="208406.0M" magvar="17.54" region="FA" ident="HP" name="MICA" /><Ndb lat="-24.5413890480995" lon="30.8694443106651" alt="1927.555M" type="H" frequency="0297.00" range="138937.0M" magvar="18.15" region="FA" ident="MP" name="MARIEPSKOP" /><Ndb lat="-24.3385362625122" lon="31.0345110297203" alt="485.851M" type="H" frequency="0265.00" range="138937.0M" magvar="17.91" region="FA" ident="HA" name="HOEDSPRUIT" /><Ndb lat="-23.9173778146505" lon="31.1539471149445" alt="442.264M" type="H" frequency="0272.00" range="138937.0M" magvar="17.3" region="FA" ident="PW" name="PHALABORWA" /><Ndb lat="-24.7833333536983" lon="30.7833333313465" alt="1179.88M" type="H" frequency="0390.00" range="138937.0M" magvar="18.5" region="FA" ident="VLH" name="VAALHOEK" /><Ndb lat="-24.980277903378" lon="31.5986113250256" alt="285.902M" type="H" frequency="0233.00" range="138937.0M" magvar="19.15" region="FA" ident="SZ" name="SKUKUZA" /><Ndb lat="-24.5833334326744" lon="33.0666665732861" alt="27.127M" type="HH" frequency="0343.00" range="208406.0M" magvar="19.12" region="FQ" ident="LP" name="LIMPOPO" /><Ndb lat="-23.8666666299105" lon="35.4000002145767" alt="1.524M" type="HH" frequency="0400.00" range="208406.0M" magvar="18.92" region="FQ" ident="IN" name="INHAMBANE" /><Ndb lat="-25.4907193779945" lon="30.919069647789" alt="807.11M" type="H" frequency="0480.00" range="138937.0M" magvar="19.67" region="FA" ident="NS" name="NELSPRUIT" /><Ndb lat="-25.3835554048419" lon="31.1089164018631" alt="862.279M" type="H" frequency="0405.00" range="138937.0M" magvar="19.58" region="FA" ident="PK" name="KRUGER MPUMALANGA" /><Ndb lat="-25.4402777552605" lon="31.6750001907349" alt="238.963M" type="H" frequency="0450.00" range="138937.0M" magvar="19.91" region="FA" ident="TSO" name="MALELANE" /><Ndb lat="-26.5666667371988" lon="30.2333334088326" alt="1641.348M" type="H" frequency="0292.00" range="138937.0M" magvar="21.09" region="FA" ident="EO" name="ERMELO" /><Ndb lat="-26.0919445753098" lon="30.0963887572289" alt="1638.3M" type="HH" frequency="0275.00" range="208406.0M" magvar="20.28" region="FA" ident="CL" name="CAROLINA" /><Ndb lat="-26.5744444727898" lon="31.2388890981674" alt="643.737M" type="HH" frequency="0240.00" range="208406.0M" magvar="21.53" region="FD" ident="OM" name="MATSAPHA (MANZINI)" /><Ndb lat="-26.5100000426173" lon="31.3347221910954" alt="622.401M" type="HH" frequency="0262.50" range="208406.0M" magvar="21.47" region="FD" ident="MS" name="MATSAPHA (MANZINI)" /><Ndb lat="-26.6236110404134" lon="31.165833324194" alt="1373.124M" type="HH" frequency="0408.00" range="208406.0M" magvar="21.57" region="FD" ident="MW" name="NTONDOZI (MANZINI)" /><Ndb lat="-26.9398833811283" lon="30.7701221108437" alt="1332.585M" type="H" frequency="0525.00" range="138937.0M" magvar="21.91" region="FA" ident="PRF" name="PIET RETIEF" /><Ndb lat="-27.3983778432012" lon="31.6533359885216" alt="267.919M" type="H" frequency="0382.50" range="138937.0M" magvar="23.02" region="FA" ident="PGL" name="PONGOLA" /><Ndb lat="-27.7863888815045" lon="30.7127778232098" alt="1226.21M" type="H" frequency="0230.00" range="138937.0M" magvar="23.22" region="FA" ident="VHD" name="VRYHEID" /><Ndb lat="-27.7675000950694" lon="30.0508332252502" alt="1211.275M" type="H" frequency="0327.50" range="138937.0M" magvar="22.91" region="FA" ident="NW" name="NEWCASTLE" /><Ndb lat="-27.7861112728715" lon="30.7869444787502" alt="1114.653M" type="H" frequency="0350.00" range="138937.0M" magvar="23.25" region="FA" ident="VHL" name="VRYHEID" /><Ndb lat="-28.0348331853747" lon="32.272000014782" alt="72.237M" type="H" frequency="0375.00" range="138937.0M" magvar="24.29" region="FA" ident="HL" name="HLUHLUWE" /><Ndb lat="-23.3893611654639" lon="43.7223055958748" alt="35.052M" type="H" frequency="0367.00" range="138937.0M" magvar="21.05" region="FM" ident="VSQ" name="TOLIARY" /><Ndb lat="-28.2353333383799" lon="31.4816111326218" alt="737.92M" type="H" frequency="0457.50" range="138937.0M" magvar="24.26" region="FA" ident="SMH" name="ULUNDI" /><Ndb lat="-28.3488611876965" lon="31.3944724202156" alt="491.032M" type="H" frequency="0422.00" range="138937.0M" magvar="24.4" region="FA" ident="UL" name="ULUNDI" /><Ndb lat="-28.3044444769621" lon="31.4306943118572" alt="531.571M" type="H" frequency="0267.50" range="138937.0M" magvar="24.35" region="FA" ident="UD" name="ULUNDI" /><Ndb lat="-29.129658266902" lon="30.578308403492" alt="1126.54M" type="H" frequency="0282.00" range="138937.0M" magvar="25.24" region="FA" ident="GT" name="GREYTOWN" /><Ndb lat="-29.105388969183" lon="30.6034335494041" alt="1107.948M" type="H" frequency="0252.50" range="138937.0M" magvar="25.22" region="FA" ident="GWN" name="GREYTOWN" /><Ndb lat="-28.8883332163095" lon="31.4483334124088" alt="529.132M" type="HH" frequency="0202.50" range="208406.0M" magvar="25.26" region="FA" ident="ES" name="ESHOWE" /><Ndb lat="-28.6847776919603" lon="32.135908305645" alt="44.5M" type="H" frequency="0465.00" range="138937.0M" magvar="25.25" region="FA" ident="RI" name="RICHARDS BAY" /><Ndb lat="-28.7601722404361" lon="32.0773082971573" alt="9.144M" type="H" frequency="0337.00" range="138937.0M" magvar="25.34" region="FA" ident="RB" name="RICHARDS BAY" /><Ndb lat="-29.5596110075712" lon="30.4487277567387" alt="944.575M" type="H" frequency="0442.50" range="138937.0M" magvar="25.84" region="FA" ident="ORI" name="PIETERMARITZBURG" /><Ndb lat="-29.6102165803313" lon="30.3950026631355" alt="668.426M" type="H" frequency="0280.00" range="138937.0M" magvar="25.89" region="FA" ident="OBI" name="PIETERMARITZBURG" /><Ndb lat="-29.6612777933478" lon="30.4097664356232" alt="810.768M" type="H" frequency="0407.00" range="138937.0M" magvar="25.98" region="FA" ident="PU" name="PIETERMARITZBURG" /><Ndb lat="-29.6326110139489" lon="30.3836193680763" alt="709.574M" type="H" frequency="0362.50" range="138937.0M" magvar="25.92" region="FA" ident="PM" name="PIETERMARITZBURG" /><Ndb lat="-30.0255720689893" lon="30.9058499336243" alt="6.096M" type="H" frequency="0393.00" range="138937.0M" magvar="26.75" region="FA" ident="DU" name="DURBAN" /><Ndb lat="-29.7056334838271" lon="30.4494613409042" alt="781.812M" type="H" frequency="0257.00" range="138937.0M" magvar="26.06" region="FA" ident="PZ" name="PIETERMARITZBURG" /><Ndb lat="-30.8041667193174" lon="30.3694443404675" alt="124.053M" type="H" frequency="0485.00" range="138937.0M" magvar="27.64" region="FA" ident="UR" name="MARGATE" /><Ndb lat="-25.0374444946647" lon="46.9530554115772" alt="20.116M" type="H" frequency="0282.00" range="138937.0M" magvar="24.28" region="FM" ident="VSP" name="TOLAGNARO" /></FSData>