<FSData version="9.0"><Vor dme="TRUE" dmeOnly="FALSE" lat="-25.2441667020321" lon="-57.521944642067" alt="90.83M" type="HIGH" frequency="115.900" range="361237.0M" magvar="15.09" region="SG" ident="VAS" name="ASUNCION"><Dme lat="-25.2441667020321" lon="-57.521944642067" alt="90.83M" range="361237.0M" /></Vor><Vor dme="TRUE" dmeOnly="FALSE" lat="-26.2102779373527" lon="-58.2246945798397" alt="58.826M" type="HIGH" frequency="115.600" range="361237.0M" magvar="14.19" region="SA" ident="FSA" name="FORMOSA"><Dme lat="-26.2102779373527" lon="-58.2246945798397" alt="58.826M" range="361237.0M" /></Vor><Vor dme="TRUE" dmeOnly="FALSE" lat="-27.4469446018338" lon="-59.0572223067284" alt="53.035M" type="HIGH" frequency="115.100" range="361237.0M" magvar="13.01" region="SA" ident="SIS" name="RESISTENCIA"><Dme lat="-27.4469446018338" lon="-59.0572223067284" alt="53.035M" range="361237.0M" /></Vor><Vor dme="TRUE" dmeOnly="FALSE" lat="-27.4372222647071" lon="-58.7616665661335" alt="67.056M" type="HIGH" frequency="115.400" range="361237.0M" magvar="13.26" region="SA" ident="CRR" name="CORRIENTES"><Dme lat="-27.4372222647071" lon="-58.7616665661335" alt="67.056M" range="361237.0M" /></Vor><Vor dme="TRUE" dmeOnly="FALSE" lat="-25.460000038147" lon="-54.8499999940395" alt="228.6M" type="HIGH" frequency="116.300" range="361237.0M" magvar="16.9" region="SG" ident="VES" name="CIUDAD DEL ESTE"><Dme lat="-25.460000038147" lon="-54.8499999940395" alt="228.6M" range="361237.0M" /></Vor><Vor dme="TRUE" dmeOnly="FALSE" lat="-25.5832803994417" lon="-54.5035806298256" alt="179.832M" type="HIGH" frequency="112.100" range="361237.0M" magvar="17.09" region="SB" ident="FOZ" name="FOZ (FOZ DO IGUACU)"><Dme lat="-25.5832803994417" lon="-54.5035806298256" alt="179.832M" range="361237.0M" /></Vor><Vor dme="TRUE" dmeOnly="FALSE" lat="-25.7344999909401" lon="-54.4856943190098" alt="284.988M" type="HIGH" frequency="114.100" range="361237.0M" magvar="17.05" region="SA" ident="IGU" name="CATARATAS DEL IGUAZU"><Dme lat="-25.7344999909401" lon="-54.4856943190098" alt="284.988M" range="361237.0M" /></Vor><Vor dme="TRUE" dmeOnly="FALSE" lat="-27.385583370924" lon="-55.9690555930138" alt="128.93M" type="HIGH" frequency="114.900" range="361237.0M" magvar="15.41" region="SA" ident="POS" name="POSADAS"><Dme lat="-27.385583370924" lon="-55.9690555930138" alt="128.93M" range="361237.0M" /></Vor><Vor dme="TRUE" dmeOnly="FALSE" lat="-27.1356665343046" lon="-52.6630000770092" alt="654.1M" type="HIGH" frequency="116.100" range="361237.0M" magvar="17.72" region="SB" ident="XPC" name="CHAPECO"><Dme lat="-27.1356665343046" lon="-52.6630000770092" alt="654.1M" range="361237.0M" /></Vor><Vor dme="TRUE" dmeOnly="FALSE" lat="-23.3395361155272" lon="-51.1125916242599" alt="569.061M" type="HIGH" frequency="112.400" range="361237.0M" magvar="19.74" region="SB" ident="LON" name="LONDRINA"><Dme lat="-23.3395361155272" lon="-51.1125916242599" alt="569.061M" range="361237.0M" /></Vor><Vor dme="TRUE" dmeOnly="FALSE" lat="-23.0086665228009" lon="-47.1291665732861" alt="661.111M" type="HIGH" frequency="112.000" range="361237.0M" magvar="21.65" region="SB" ident="CPN" name="CAMPINAS"><Dme lat="-23.0086665228009" lon="-47.1291665732861" alt="661.111M" range="361237.0M" /></Vor><Vor dme="TRUE" dmeOnly="FALSE" lat="-23.4875001758337" lon="-46.9233334064484" alt="944.88M" type="HIGH" frequency="114.300" range="361237.0M" magvar="21.64" region="SB" ident="STN" name="SANTANA (SAO PAULO TMA)"><Dme lat="-23.4875001758337" lon="-46.9233334064484" alt="944.88M" range="361237.0M" /></Vor><Vor dme="TRUE" dmeOnly="FALSE" lat="-23.5070611909032" lon="-47.3782999813557" alt="609.6M" type="HIGH" frequency="115.200" range="361237.0M" magvar="21.45" region="SB" ident="SCB" name="SOROCABA (SAO PAULO TMA)"><Dme lat="-23.5070611909032" lon="-47.3782999813557" alt="609.6M" range="361237.0M" /></Vor><Vor dme="TRUE" dmeOnly="FALSE" lat="-22.9513554275036" lon="-46.5699000656605" alt="879.957M" type="HIGH" frequency="116.200" range="361237.0M" magvar="21.87" region="SB" ident="BGC" name="BRAGANCA (-PAULISTA)"><Dme lat="-22.9513554275036" lon="-46.5699000656605" alt="879.957M" range="361237.0M" /></Vor><Vor dme="TRUE" dmeOnly="FALSE" lat="-23.4064055979252" lon="-46.3855138421059" alt="609.6M" type="HIGH" frequency="116.000" range="361237.0M" magvar="21.87" region="SB" ident="BCO" name="BONSUCESSO (SAO PAULO)"><Dme lat="-23.4064055979252" lon="-46.3855138421059" alt="609.6M" range="361237.0M" /></Vor><Vor dme="TRUE" dmeOnly="FALSE" lat="-23.8947222009301" lon="-46.5297862887383" alt="609.6M" type="HIGH" frequency="116.700" range="361237.0M" magvar="21.72" region="SB" ident="RDE" name="REDE (SAO PAULO)"><Dme lat="-23.8947222009301" lon="-46.5297862887383" alt="609.6M" range="361237.0M" /></Vor><Vor dme="TRUE" dmeOnly="FALSE" lat="-23.6274806410074" lon="-46.6546887159348" alt="801.928M" type="HIGH" frequency="116.900" range="361237.0M" magvar="21.72" region="SB" ident="CGO" name="CONGONHAS (SAO PAULO)"><Dme lat="-23.6274806410074" lon="-46.6546887159348" alt="801.928M" range="361237.0M" /></Vor><Vor dme="TRUE" dmeOnly="FALSE" lat="-23.2463471218944" lon="-45.8541552722454" alt="648.919M" type="HIGH" frequency="112.800" range="361237.0M" magvar="22.09" region="SB" ident="SJC" name="SAO JOSE (-DOS CAMPOS)"><Dme lat="-23.2463471218944" lon="-45.8541552722454" alt="648.919M" range="361237.0M" /></Vor><Vor dme="TRUE" dmeOnly="FALSE" lat="-25.5320418253541" lon="-49.1681778430939" alt="910.132M" type="HIGH" frequency="116.500" range="361237.0M" magvar="20.17" region="SB" ident="CTB" name="CURITIBA"><Dme lat="-25.5320418253541" lon="-49.1681778430939" alt="910.132M" range="361237.0M" /></Vor><Vor dme="TRUE" dmeOnly="FALSE" lat="-26.2223334610462" lon="-48.7979999184608" alt="4.572M" type="HIGH" frequency="115.100" range="361237.0M" magvar="20.16" region="SB" ident="JNV" name="JOINVILLE"><Dme lat="-26.2223334610462" lon="-48.7979999184608" alt="4.572M" range="361237.0M" /></Vor><Vor dme="TRUE" dmeOnly="FALSE" lat="-27.6703333854675" lon="-48.5466666519642" alt="5.791M" type="HIGH" frequency="117.800" range="361237.0M" magvar="19.83" region="SB" ident="XRO" name="FLORIANOPOLIS"><Dme lat="-27.6703333854675" lon="-48.5466666519642" alt="5.791M" range="361237.0M" /></Vor><Vor dme="TRUE" dmeOnly="FALSE" lat="-29.2144445702434" lon="-59.6972224116325" alt="51.816M" type="HIGH" frequency="117.100" range="361237.0M" magvar="11.67" region="SA" ident="RTA" name="RECONQUISTA"><Dme lat="-29.2144445702434" lon="-59.6972224116325" alt="51.816M" range="361237.0M" /></Vor><Vor dme="FALSE" dmeOnly="FALSE" lat="-30.2666667848825" lon="-57.6383332908154" alt="22.555M" type="HIGH" frequency="113.900" range="361237.0M" magvar="12.83" region="SA" ident="MCS" name="MONTE CASEROS" /><Vor dme="TRUE" dmeOnly="FALSE" lat="-29.7101416066289" lon="-53.7125167250633" alt="91.44M" type="HIGH" frequency="112.000" range="361237.0M" magvar="15.99" region="SB" ident="SMA" name="SANTA MARIA"><Dme lat="-29.7101416066289" lon="-53.7125167250633" alt="91.44M" range="361237.0M" /></Vor><Vor dme="FALSE" dmeOnly="FALSE" lat="-31.4347222074866" lon="-57.984249740839" alt="42.062M" type="HIGH" frequency="117.900" range="361237.0M" magvar="11.94" region="SU" ident="STO" name="SALTO" /><Vor dme="FALSE" dmeOnly="FALSE" lat="-33.0111110955477" lon="-58.6138889193535" alt="24.384M" type="HIGH" frequency="113.200" range="361237.0M" magvar="10.54" region="SA" ident="GUA" name="GUALEGUAYCHU" /><Vor dme="TRUE" dmeOnly="FALSE" lat="-33.3562500402331" lon="-56.496055573225" alt="94.488M" type="HIGH" frequency="117.500" range="361237.0M" magvar="12.06" region="SU" ident="DUR" name="DURAZNO"><Dme lat="-33.3562500402331" lon="-56.496055573225" alt="94.488M" range="361237.0M" /></Vor><Vor dme="FALSE" dmeOnly="FALSE" lat="-31.7502777278423" lon="-55.9238612651825" alt="113.995M" type="HIGH" frequency="112.600" range="361237.0M" magvar="13.39" region="SU" ident="TMB" name="TACUAREMBO" /><Vor dme="FALSE" dmeOnly="FALSE" lat="-31.3906806707382" lon="-54.1097693145275" alt="179.832M" type="HIGH" frequency="115.300" range="361237.0M" magvar="14.91" region="SB" ident="BGE" name="BAGE" /><Vor dme="FALSE" dmeOnly="FALSE" lat="-32.342444434762" lon="-54.2219723761082" alt="98.45M" type="HIGH" frequency="114.300" range="361237.0M" magvar="14.33" region="SU" ident="MLO" name="MELO" /><Vor dme="FALSE" dmeOnly="FALSE" lat="-28.2449249178171" lon="-52.3337137699127" alt="724.204M" type="HIGH" frequency="112.700" range="361237.0M" magvar="17.5" region="SB" ident="PFD" name="PASSO FUNDO" /><Vor dme="TRUE" dmeOnly="FALSE" lat="-29.1979999467731" lon="-51.1886666715145" alt="754.38M" type="HIGH" frequency="112.300" range="361237.0M" magvar="17.81" region="SB" ident="CXS" name="DO SUL"><Dme lat="-29.1979999467731" lon="-51.1886666715145" alt="754.38M" range="361237.0M" /></Vor><Vor dme="TRUE" dmeOnly="FALSE" lat="-29.9960000440478" lon="-51.1651664972305" alt="3.352M" type="HIGH" frequency="114.000" range="361237.0M" magvar="17.49" region="SB" ident="POR" name="PORTO ALEGRE"><Dme lat="-29.9960000440478" lon="-51.1651664972305" alt="3.352M" range="361237.0M" /></Vor><Vor dme="TRUE" dmeOnly="FALSE" lat="-29.9350807070732" lon="-51.1872164905071" alt="7.924M" type="HIGH" frequency="117.000" range="361237.0M" magvar="17.51" region="SB" ident="OAS" name="CANOAS (PORTO ALEGRE)"><Dme lat="-29.9350807070732" lon="-51.1872164905071" alt="7.924M" range="361237.0M" /></Vor><Vor dme="FALSE" dmeOnly="FALSE" lat="-31.7187973111868" lon="-52.3279416561127" alt="17.983M" type="HIGH" frequency="113.300" range="361237.0M" magvar="15.95" region="SB" ident="PTS" name="PELOTAS" /><Vor dme="TRUE" dmeOnly="FALSE" lat="-22.7764693647623" lon="-43.3332140743732" alt="30.48M" type="HIGH" frequency="113.000" range="361237.0M" magvar="22.99" region="SB" ident="CAX" name="CAXIAS (RIO DE JANEIRO)"><Dme lat="-22.7764693647623" lon="-43.3332140743732" alt="30.48M" range="361237.0M" /></Vor><Vor dme="TRUE" dmeOnly="FALSE" lat="-22.9496471956372" lon="-43.7275193631649" alt="3.048M" type="HIGH" frequency="113.600" range="361237.0M" magvar="22.85" region="SB" ident="SCR" name="SANTA CRUZ (RIO)"><Dme lat="-22.9496471956372" lon="-43.7275193631649" alt="3.048M" range="361237.0M" /></Vor><Vor dme="TRUE" dmeOnly="FALSE" lat="-22.9676944389939" lon="-42.8914166986942" alt="4.876M" type="HIGH" frequency="114.000" range="361237.0M" magvar="23.09" region="SB" ident="MRC" name="MARICA (RIO DE JANEIRO TMA)"><Dme lat="-22.9676944389939" lon="-42.8914166986942" alt="4.876M" range="361237.0M" /></Vor><Vor dme="TRUE" dmeOnly="FALSE" lat="-22.7153750136495" lon="-42.8574831783772" alt="60.96M" type="HIGH" frequency="114.600" range="361237.0M" magvar="23.13" region="SB" ident="PCX" name="PORTO (RIO DE JANEIRO TMA)"><Dme lat="-22.7153750136495" lon="-42.8574831783772" alt="60.96M" range="361237.0M" /></Vor><Vor dme="TRUE" dmeOnly="FALSE" lat="-22.8128334134817" lon="-42.0955002307892" alt="14.63M" type="HIGH" frequency="112.100" range="361237.0M" magvar="23.32" region="SB" ident="ADA" name="ALDEIA (SAO PEDRO DA)"><Dme lat="-22.8128334134817" lon="-42.0955002307892" alt="14.63M" range="361237.0M" /></Vor><Vor dme="TRUE" dmeOnly="FALSE" lat="-34.2194445803761" lon="-59.4355554878712" alt="0.304M" type="HIGH" frequency="117.700" range="361237.0M" magvar="9.13" region="SA" ident="SNT" name="SAN ANTONIO DE ARECO"><Dme lat="-34.2194445803761" lon="-59.4355554878712" alt="0.304M" range="361237.0M" /></Vor><Vor dme="TRUE" dmeOnly="FALSE" lat="-34.4514110684395" lon="-58.5840721428394" alt="4.876M" type="HIGH" frequency="114.400" range="361237.0M" magvar="9.71" region="SA" ident="FDO" name="SAN FERNANDO"><Dme lat="-34.4514110684395" lon="-58.5840721428394" alt="4.876M" range="361237.0M" /></Vor><Vor dme="TRUE" dmeOnly="FALSE" lat="-34.8240553960204" lon="-58.5353055596352" alt="28.956M" type="HIGH" frequency="116.500" range="361237.0M" magvar="9.52" region="SA" ident="EZE" name="EZEIZA"><Dme lat="-34.8240553960204" lon="-58.5353055596352" alt="28.956M" range="361237.0M" /></Vor><Vor dme="TRUE" dmeOnly="FALSE" lat="-34.6127777919173" lon="-58.6138889193535" alt="17.983M" type="HIGH" frequency="115.200" range="361237.0M" magvar="9.58" region="SA" ident="PAL" name="EL PALOMAR (BUENOS AIRES)"><Dme lat="-34.6127777919173" lon="-58.6138889193535" alt="17.983M" range="361237.0M" /></Vor><Vor dme="TRUE" dmeOnly="FALSE" lat="-34.5627777278423" lon="-58.7905552983284" alt="0.304M" type="HIGH" frequency="112.900" range="361237.0M" magvar="9.46" region="SA" ident="ENO" name="MARIANO MORENO"><Dme lat="-34.5627777278423" lon="-58.7905552983284" alt="0.304M" range="361237.0M" /></Vor><Vor dme="FALSE" dmeOnly="FALSE" lat="-34.97583322227" lon="-57.898333221674" alt="22.86M" type="HIGH" frequency="113.700" range="361237.0M" magvar="9.95" region="SA" ident="PTA" name="LA PLATA" /><Vor dme="FALSE" dmeOnly="FALSE" lat="-35.7511109858751" lon="-58.4638890624046" alt="16.764M" type="HIGH" frequency="115.600" range="361237.0M" magvar="8.99" region="SA" ident="GBE" name="GEN BELGRANO (BUENOS AIRES)" /><Vor dme="TRUE" dmeOnly="FALSE" lat="-35.3461111709476" lon="-57.2755555808544" alt="17.068M" type="HIGH" frequency="114.100" range="361237.0M" magvar="10.23" region="SA" ident="PDI" name="PUNTA INDIO"><Dme lat="-35.3461111709476" lon="-57.2755555808544" alt="17.068M" range="361237.0M" /></Vor><Vor dme="TRUE" dmeOnly="FALSE" lat="-34.8327222838998" lon="-56.0251387953758" alt="29.87M" type="HIGH" frequency="116.900" range="361237.0M" magvar="11.54" region="SU" ident="CRR" name="CARRASCO (MONTEVIDEO)"><Dme lat="-34.8327222838998" lon="-56.0251387953758" alt="29.87M" range="361237.0M" /></Vor><Vor dme="TRUE" dmeOnly="FALSE" lat="-34.85830552876" lon="-55.0917220115662" alt="29.565M" type="HIGH" frequency="117.600" range="361237.0M" magvar="12.24" region="SU" ident="LDS" name="CAPITAN CURBELO (MALDONADO)"><Dme lat="-34.85830552876" lon="-55.0917220115662" alt="29.565M" range="361237.0M" /></Vor><Vor dme="TRUE" dmeOnly="FALSE" lat="-37.2249999269843" lon="-59.2294442653656" alt="174.955M" type="HIGH" frequency="115.900" range="361237.0M" magvar="7.37" region="SA" ident="DIL" name="TANDIL"><Dme lat="-37.2249999269843" lon="-59.2294442653656" alt="174.955M" range="361237.0M" /></Vor><Vor dme="TRUE" dmeOnly="FALSE" lat="-37.9298056662083" lon="-57.5764444470406" alt="3.962M" type="HIGH" frequency="116.200" range="361237.0M" magvar="8.27" region="SA" ident="MDP" name="MAR DEL PLATA"><Dme lat="-37.9298056662083" lon="-57.5764444470406" alt="3.962M" range="361237.0M" /></Vor><Ndb lat="-22.6233333349228" lon="-56.6349998116493" alt="163.372M" type="H" frequency="0397.00" range="138937.0M" magvar="16.57" region="SG" ident="STA" name="SANTA TERESA" /><Ndb lat="-23.438333272934" lon="-57.4299998581409" alt="43.891M" type="H" frequency="0405.00" range="138937.0M" magvar="15.77" region="SG" ident="CON" name="CONCEPCION" /><Ndb lat="-25.2358334138989" lon="-57.5130553543568" alt="78.028M" type="H" frequency="0360.00" range="138937.0M" magvar="15.1" region="SG" ident="ASU" name="ASUNCION" /><Ndb lat="-22.5500832125545" lon="-55.7072053849697" alt="659.892M" type="H" frequency="0340.00" range="138937.0M" magvar="17.21" region="SB" ident="PTP" name="PONTA PORA" /><Ndb lat="-22.6416665688157" lon="-55.8330555260181" alt="559.612M" type="H" frequency="0353.00" range="138937.0M" magvar="17.11" region="SG" ident="PJC" name="PEDRO JUAN CABALLERO" /><Ndb lat="-24.0850001201034" lon="-54.254999756813" alt="251.155M" type="H" frequency="0305.00" range="138937.0M" magvar="17.73" region="SB" ident="GAI" name="GUAIRA" /><Ndb lat="-25.0029999017715" lon="-53.5031667351723" alt="786.688M" type="H" frequency="0220.00" range="138937.0M" magvar="17.92" region="SB" ident="CAV" name="CASCAVEL" /><Ndb lat="-24.6856667473912" lon="-53.6996667087078" alt="565.099M" type="H" frequency="0385.00" range="138937.0M" magvar="17.89" region="SB" ident="TOL" name="TOLEDO" /><Ndb lat="-27.4641667306423" lon="-59.0697222948074" alt="41.757M" type="H" frequency="0285.00" range="138937.0M" magvar="13.0" region="SA" ident="SIS" name="RESISTENCIA" /><Ndb lat="-27.5199999287724" lon="-58.7666666507721" alt="53.34M" type="COMPASS_POINT" frequency="0330.00" range="41681.0M" magvar="13.22" region="SA" ident="OC" name="CORRIENTES" /><Ndb lat="-27.4242779240012" lon="-59.0451112389565" alt="42.672M" type="COMPASS_POINT" frequency="0262.00" range="41681.0M" magvar="13.03" region="SA" ident="N" name="RESISTENCIA" /><Ndb lat="-25.4794443771243" lon="-54.8658330738544" alt="267.614M" type="H" frequency="0200.00" range="138937.0M" magvar="16.89" region="SG" ident="CDE" name="CIUDAD DEL ESTE" /><Ndb lat="-25.4086112603545" lon="-54.6219442784786" alt="227.076M" type="H" frequency="0225.00" range="138937.0M" magvar="17.07" region="SG" ident="ITU" name="ITAIPU" /><Ndb lat="-25.3697222471237" lon="-54.7613887488842" alt="246.278M" type="H" frequency="0293.00" range="138937.0M" magvar="16.99" region="SG" ident="ALG" name="CIUDAD DEL ESTE" /><Ndb lat="-27.1308331936598" lon="-52.6495000720024" alt="689.762M" type="H" frequency="1734.00" range="138937.0M" magvar="17.73" region="SB" ident="XPC" name="CHAPECO" /><Ndb lat="-23.4758332371712" lon="-52.0060001313686" alt="401.421M" type="H" frequency="0320.00" range="138937.0M" magvar="19.23" region="SB" ident="MRN" name="MARINGA" /><Ndb lat="-23.3276804164052" lon="-51.1357583105564" alt="571.804M" type="H" frequency="0365.00" range="138937.0M" magvar="19.73" region="SB" ident="LON" name="LONDRINA" /><Ndb lat="-23.614619448781" lon="-51.4241498708725" alt="671.474M" type="H" frequency="0215.00" range="138937.0M" magvar="19.51" region="SB" ident="APC" name="APUCARANA" /><Ndb lat="-22.6447916775942" lon="-50.4529997706413" alt="563.27M" type="H" frequency="0275.00" range="138937.0M" magvar="20.23" region="SB" ident="ASS" name="ASSIS" /><Ndb lat="-22.9734501242638" lon="-49.9123165011406" alt="461.467M" type="H" frequency="0315.00" range="138937.0M" magvar="20.43" region="SB" ident="ORH" name="OURINHOS" /><Ndb lat="-24.31904733181" lon="-50.6534944474697" alt="669.95M" type="H" frequency="0285.00" range="138937.0M" magvar="19.74" region="SB" ident="TLB" name="TELAMACO (TELAMACO BORBA)" /><Ndb lat="-25.1829194650054" lon="-50.1468028128147" alt="892.149M" type="H" frequency="0275.00" range="138937.0M" magvar="19.77" region="SB" ident="PGR" name="GROSSA" /><Ndb lat="-23.0539998784661" lon="-47.0696666836739" alt="722.68M" type="MH" frequency="0395.00" range="69469.0M" magvar="21.66" region="SB" ident="KP" name="GRAMA (CAMPINAS)" /><Ndb lat="-23.4830554202199" lon="-47.4847219884396" alt="612.648M" type="H" frequency="0350.00" range="138937.0M" magvar="21.42" region="SB" ident="SCB" name="SOROCABA" /><Ndb lat="-23.5655333474278" lon="-46.9227276742458" alt="805.586M" type="H" frequency="0270.00" range="138937.0M" magvar="21.63" region="SB" ident="TPV" name="ITAPEVI (SAO PAULO)" /><Ndb lat="-22.9804667830467" lon="-46.5388360619545" alt="822.045M" type="H" frequency="0385.00" range="138937.0M" magvar="21.88" region="SB" ident="BGC" name="BRAGANCA (-PAULISTA)" /><Ndb lat="-22.7880139276385" lon="-45.2153469622135" alt="536.143M" type="H" frequency="0275.00" range="138937.0M" magvar="22.39" region="SB" ident="GGT" name="GUARATINGUETA" /><Ndb lat="-22.881947234273" lon="-45.3568276762962" alt="512.978M" type="H" frequency="0205.00" range="138937.0M" magvar="22.33" region="SB" ident="PND" name="VIBASA (PINDAMONHANGABA)" /><Ndb lat="-23.0456696078181" lon="-45.5168335139751" alt="606.552M" type="H" frequency="0430.00" range="138937.0M" magvar="22.25" region="SB" ident="TBE" name="TAUBATE" /><Ndb lat="-23.6101029440761" lon="-46.6675418615341" alt="801.928M" type="MH" frequency="0250.00" range="69469.0M" magvar="21.72" region="SB" ident="SPO" name="SAO PAULO" /><Ndb lat="-23.8506250083447" lon="-46.8162497878075" alt="720.852M" type="H" frequency="0525.00" range="138937.0M" magvar="21.62" region="SB" ident="EMB" name="EMBUGUACU (SAO PAULO)" /><Ndb lat="-23.421627804637" lon="-46.7559000849724" alt="868.68M" type="H" frequency="0220.00" range="138937.0M" magvar="21.72" region="SB" ident="PER" name="PERUS (SAO PAULO)" /><Ndb lat="-23.5068332031369" lon="-46.6365002095699" alt="665.378M" type="H" frequency="0260.00" range="138937.0M" magvar="21.75" region="SB" ident="MAE" name="MARTE (SAO PAULO)" /><Ndb lat="-23.705586232245" lon="-46.6013945639133" alt="736.396M" type="H" frequency="0200.00" range="138937.0M" magvar="21.73" region="SB" ident="DAD" name="DIADEMA (SAO PAULO)" /><Ndb lat="-23.2497223466635" lon="-45.8638890087605" alt="607.466M" type="H" frequency="0230.00" range="138937.0M" magvar="22.09" region="SB" ident="SJC" name="SAO JOSE" /><Ndb lat="-23.4490832313895" lon="-45.0738251209259" alt="28.651M" type="H" frequency="0295.00" range="138937.0M" magvar="22.34" region="SB" ident="UBT" name="UBATUBA" /><Ndb lat="-23.9475278556347" lon="-46.2869390845299" alt="0.914M" type="COMPASS_POINT" frequency="0360.00" range="41681.0M" magvar="21.81" region="SB" ident="RR" name="VICENTE (SANTOS)" /><Ndb lat="-24.0504693612456" lon="-46.264113932848" alt="0.0M" type="H" frequency="0305.00" range="138937.0M" magvar="21.8" region="SB" ident="NR" name="MOELA" /><Ndb lat="-23.9832723140717" lon="-46.2633472681046" alt="0.914M" type="H" frequency="0375.00" range="138937.0M" magvar="21.81" region="SB" ident="SAT" name="SANTOS" /><Ndb lat="-25.3885000571609" lon="-51.5221667289734" alt="1045.159M" type="MH" frequency="0230.00" range="69469.0M" magvar="18.97" region="SB" ident="GRU" name="GUARAPUAVA" /><Ndb lat="-25.6059306487441" lon="-49.089669585228" alt="915.924M" type="H" frequency="0255.00" range="138937.0M" magvar="20.19" region="SB" ident="PNH" name="PINHAIS (CURITIBA)" /><Ndb lat="-25.4025860130787" lon="-49.2289803922176" alt="925.068M" type="H" frequency="0300.00" range="138937.0M" magvar="20.18" region="SB" ident="BCH" name="BACACHERI" /><Ndb lat="-25.5230862647295" lon="-49.1715167462826" alt="914.095M" type="H" frequency="0390.00" range="138937.0M" magvar="20.17" region="SB" ident="CRT" name="CURITIBA" /><Ndb lat="-27.7824359759688" lon="-50.2765609323978" alt="927.811M" type="H" frequency="0240.00" range="138937.0M" magvar="18.88" region="SB" ident="LJS" name="LAGES" /><Ndb lat="-25.5346415564418" lon="-48.5308389365673" alt="2.743M" type="H" frequency="0340.00" range="138937.0M" magvar="20.48" region="SB" ident="PNG" name="PARANAGUA" /><Ndb lat="-25.4938029125333" lon="-48.3288583159447" alt="0.0M" type="H" frequency="0320.00" range="138937.0M" magvar="20.59" region="SB" ident="NX" name="DOMEL" /><Ndb lat="-26.3726193085313" lon="-48.72429728508" alt="8.839M" type="H" frequency="0245.00" range="138937.0M" magvar="20.15" region="SB" ident="GAB" name="GABI" /><Ndb lat="-26.8756303936243" lon="-48.6528334021568" alt="2.743M" type="H" frequency="0235.00" range="138937.0M" magvar="20.03" region="SB" ident="NVG" name="NAVEGANTES" /><Ndb lat="-27.6952695474029" lon="-48.5005863010883" alt="7.01M" type="H" frequency="0220.00" range="138937.0M" magvar="19.84" region="SB" ident="FNP" name="FLORIANOPOLIS" /><Ndb lat="-27.6217971369624" lon="-48.6324973404408" alt="0.304M" type="MH" frequency="0380.00" range="69469.0M" magvar="19.8" region="SB" ident="BKO" name="BOKO (FLORIANOPOLIS)" /><Ndb lat="-29.2261111736298" lon="-58.085555434227" alt="89.916M" type="H" frequency="0265.00" range="138937.0M" magvar="12.98" region="SA" ident="RCE" name="MERCEDES" /><Ndb lat="-29.6693609654903" lon="-57.155749797821" alt="55.473M" type="COMPASS_POINT" frequency="0325.00" range="41681.0M" magvar="13.5" region="SA" ident="L" name="PASO DE LOS LIBRES" /><Ndb lat="-29.7860695794225" lon="-57.0366498827934" alt="63.093M" type="H" frequency="0275.00" range="138937.0M" magvar="13.54" region="SB" ident="URG" name="URUGUAIANA" /><Ndb lat="-29.6946109458804" lon="-57.1481667459011" alt="68.884M" type="H" frequency="0250.00" range="138937.0M" magvar="13.49" region="SA" ident="LIB" name="PASO DE LOS LIBRES" /><Ndb lat="-30.4029166325927" lon="-56.4870831370354" alt="120.091M" type="H" frequency="0405.00" range="138937.0M" magvar="13.66" region="SU" ident="AT" name="ARTIGAS" /><Ndb lat="-28.7200001254678" lon="-53.6419446766377" alt="369.417M" type="H" frequency="0335.00" range="138937.0M" magvar="16.47" region="SB" ident="CAT" name="CRUZ ALTA" /><Ndb lat="-28.2779110595584" lon="-54.1716165840626" alt="318.516M" type="H" frequency="0280.00" range="138937.0M" magvar="16.3" region="SB" ident="SAN" name="SANTO ANGELO" /><Ndb lat="-29.7070000693202" lon="-53.6771665513515" alt="143.865M" type="H" frequency="0365.00" range="138937.0M" magvar="16.01" region="SB" ident="SMA" name="SANTA MARIA" /><Ndb lat="-29.7062748670578" lon="-53.7689888477325" alt="141.732M" type="H" frequency="0215.00" range="138937.0M" magvar="15.95" region="SB" ident="SMR" name="CERRITO (SANTA MARIA)" /><Ndb lat="-31.4506665989757" lon="-57.9967220127583" alt="56.997M" type="H" frequency="0410.00" range="138937.0M" magvar="11.92" region="SU" ident="ST" name="SALTO" /><Ndb lat="-31.3011109828949" lon="-58.003888875246" alt="35.966M" type="H" frequency="0335.00" range="138937.0M" magvar="12.0" region="SA" ident="DIA" name="CONCORDIA" /><Ndb lat="-32.3626666143537" lon="-58.0693611502647" alt="51.816M" type="H" frequency="0360.00" range="138937.0M" magvar="11.36" region="SU" ident="PN" name="PAYSANDU" /><Ndb lat="-33.3597499877214" lon="-56.5497498214245" alt="67.36M" type="H" frequency="0245.00" range="138937.0M" magvar="12.01" region="SU" ident="DO" name="DURAZNO" /><Ndb lat="-33.3431665599346" lon="-56.4911668002605" alt="100.584M" type="COMPASS_POINT" frequency="0298.00" range="41681.0M" magvar="12.07" region="SU" ident="MP" name="DURAZNO" /><Ndb lat="-33.391610942781" lon="-56.5156942605972" alt="81.381M" type="COMPASS_POINT" frequency="0277.00" range="41681.0M" magvar="12.02" region="SU" ident="BD" name="DURAZNO" /><Ndb lat="-30.9873056039214" lon="-55.489416718483" alt="174.04M" type="COMPASS_POINT" frequency="0260.00" range="41681.0M" magvar="14.11" region="SU" ident="RV" name="RIVERA" /><Ndb lat="-31.0102498903871" lon="-55.5133330821991" alt="191.414M" type="H" frequency="0305.00" range="138937.0M" magvar="14.08" region="SU" ident="RVA" name="RIVERA" /><Ndb lat="-31.7510277405381" lon="-55.9285832941532" alt="116.433M" type="H" frequency="0280.00" range="138937.0M" magvar="13.39" region="SU" ident="TBO" name="TACUAREMBO" /><Ndb lat="-31.3853611797094" lon="-54.1130889952183" alt="180.136M" type="H" frequency="0235.00" range="138937.0M" magvar="14.91" region="SB" ident="BGE" name="BAGE" /><Ndb lat="-32.3400555923581" lon="-54.2238888144493" alt="109.118M" type="H" frequency="0245.00" range="138937.0M" magvar="14.33" region="SU" ident="MO" name="MELO" /><Ndb lat="-33.7424083426595" lon="-53.3744944632053" alt="0.609M" type="H" frequency="0312.00" range="138937.0M" magvar="14.15" region="SB" ident="UI" name="CHUI" /><Ndb lat="-28.2408057153225" lon="-52.3297749459744" alt="637.336M" type="H" frequency="0370.00" range="138937.0M" magvar="17.51" region="SB" ident="PFD" name="PASSO FUNDO" /><Ndb lat="-29.1440556943417" lon="-51.234110891819" alt="693.724M" type="H" frequency="1690.00" range="138937.0M" magvar="17.81" region="SB" ident="CXS" name="DO SUL" /><Ndb lat="-28.6038081720471" lon="-48.8138750195503" alt="0.0M" type="H" frequency="0310.00" range="138937.0M" magvar="19.37" region="SB" ident="SW" name="SANTA MARTA (CABO DE-)" /><Ndb lat="-28.7212279066443" lon="-49.4221195578575" alt="28.956M" type="H" frequency="0405.00" range="138937.0M" magvar="19.0" region="SB" ident="CRY" name="CRICIUMA" /><Ndb lat="-29.4143331795931" lon="-49.8066665232182" alt="12.192M" type="H" frequency="0230.00" range="138937.0M" magvar="18.52" region="SB" ident="TOR" name="TORRES" /><Ndb lat="-29.7896667569876" lon="-51.830833107233" alt="69.799M" type="H" frequency="0265.00" range="138937.0M" magvar="17.18" region="SB" ident="KRI" name="QUARI (PORTO ALEGRE TMA)" /><Ndb lat="-29.9980888143182" lon="-50.9752415120602" alt="74.98M" type="H" frequency="0275.00" range="138937.0M" magvar="17.6" region="SB" ident="FGR" name="FIGUEIRAS (PORTO ALEGRE TMA)" /><Ndb lat="-29.9952443316579" lon="-51.1432720720768" alt="52.12M" type="MH" frequency="0315.00" range="69469.0M" magvar="17.51" region="SB" ident="PA" name="SALGADO (PORTO ALEGRE)" /><Ndb lat="-29.9447249248624" lon="-51.1372889578342" alt="7.924M" type="H" frequency="0250.00" range="138937.0M" magvar="17.53" region="SB" ident="OAS" name="CANOAS (PORTO ALEGRE)" /><Ndb lat="-29.9997222796083" lon="-51.1786110699177" alt="3.962M" type="H" frequency="0330.00" range="138937.0M" magvar="17.48" region="SB" ident="PAG" name="PORTO ALEGRE" /><Ndb lat="-29.6684248745441" lon="-50.7818667590618" alt="95.402M" type="H" frequency="0360.00" range="138937.0M" magvar="17.86" region="SB" ident="TQA" name="TAQUARA (PORTO ALEGRE TMA)" /><Ndb lat="-29.9963054805994" lon="-50.1450057327747" alt="0.914M" type="H" frequency="0300.00" range="138937.0M" magvar="18.09" region="SB" ident="FB" name="TRAMANDAI (PORTO ALEGRE TMA)" /><Ndb lat="-31.7183332890272" lon="-52.3316667973995" alt="17.983M" type="H" frequency="0340.00" range="138937.0M" magvar="15.95" region="SB" ident="PTS" name="PELOTAS" /><Ndb lat="-32.0830168202519" lon="-52.1632915735245" alt="0.914M" type="H" frequency="0270.00" range="138937.0M" magvar="15.87" region="SB" ident="RND" name="RIO GRANDE" /><Ndb lat="-32.1493582427502" lon="-52.1036414802074" alt="0.914M" type="H" frequency="0290.00" range="138937.0M" magvar="15.88" region="SB" ident="RG" name="CANAL (RIO GRANDE)" /><Ndb lat="-22.8250776976347" lon="-43.6675442755222" alt="14.02M" type="COMPASS_POINT" frequency="0245.00" range="41681.0M" magvar="22.88" region="SB" ident="QQ" name="CRUZ (RIO DE JANEIRO)" /><Ndb lat="-22.9439139738679" lon="-43.7171803414822" alt="5.181M" type="H" frequency="0255.00" range="138937.0M" magvar="22.85" region="SB" ident="SCR" name="SANTA CRUZ (RIO)" /><Ndb lat="-22.8701666370034" lon="-43.1651665270329" alt="0.0M" type="COMPASS_POINT" frequency="0415.00" range="41681.0M" magvar="23.02" region="SB" ident="PP" name="PAIOL (RIO DE JANEIRO)" /><Ndb lat="-23.0638556554914" lon="-43.1460638344288" alt="107.594M" type="H" frequency="0315.00" range="138937.0M" magvar="23.0" region="SB" ident="IH" name="RASA (RIO DE JANEIRO TMA)" /><Ndb lat="-22.718558460474" lon="-43.4805889427662" alt="55.168M" type="H" frequency="0215.00" range="138937.0M" magvar="22.95" region="SB" ident="NOA" name="NOVA (RIO DE JANEIRO TMA)" /><Ndb lat="-22.7641556784511" lon="-43.3385807275772" alt="49.987M" type="MH" frequency="0400.00" range="69469.0M" magvar="22.99" region="SB" ident="CAX" name="CAXIAS (RIO DE JANEIRO)" /><Ndb lat="-22.9878723621368" lon="-43.3690305054188" alt="10.058M" type="H" frequency="0205.00" range="138937.0M" magvar="22.95" region="SB" ident="JPG" name="JACAREPAGUA (RIO)" /><Ndb lat="-22.7870473265648" lon="-43.1678719818592" alt="72.847M" type="H" frequency="0330.00" range="138937.0M" magvar="23.03" region="SB" ident="YLA" name="ILHA (RIO DE JANEIRO)" /><Ndb lat="-22.8669721260667" lon="-43.3668664097786" alt="33.832M" type="H" frequency="0270.00" range="138937.0M" magvar="22.96" region="SB" ident="AFS" name="AFONSOS (RIO DE JANEIRO)" /><Ndb lat="-22.8229999914765" lon="-42.0966665446758" alt="44.5M" type="H" frequency="0345.00" range="138937.0M" magvar="23.32" region="SB" ident="ADA" name="ALDEIA (SAO PEDRO DA-)" /><Ndb lat="-34.2477777600288" lon="-59.4755552709103" alt="30.175M" type="H" frequency="0340.00" range="138937.0M" magvar="9.08" region="SA" ident="SNT" name="SAN ANTONIO DE ARECO" /><Ndb lat="-34.710808172822" lon="-58.2403667271137" alt="3.657M" type="H" frequency="0210.00" range="138937.0M" magvar="9.83" region="SA" ident="ILM" name="QUILMES" /><Ndb lat="-34.5183331891894" lon="-58.4833332896233" alt="10.972M" type="MH" frequency="0260.00" range="69469.0M" magvar="9.75" region="SA" ident="OP" name="AEROPARQUE (BUENOS AIRES)" /><Ndb lat="-34.4833333790302" lon="-58.8233332335949" alt="14.63M" type="COMPASS_POINT" frequency="0295.00" range="41681.0M" magvar="9.49" region="SA" ident="OZ" name="MARIANO MORENO" /><Ndb lat="-34.5383334159851" lon="-58.8000002503395" alt="32.004M" type="COMPASS_POINT" frequency="0395.00" range="41681.0M" magvar="9.47" region="SA" ident="Z" name="MARIANO MORENO" /><Ndb lat="-34.4539444148541" lon="-57.7700833976269" alt="21.945M" type="H" frequency="0203.00" range="138937.0M" magvar="10.38" region="SU" ident="COL" name="COLONIA" /><Ndb lat="-34.9661112204194" lon="-57.8955553472042" alt="21.945M" type="H" frequency="0250.00" range="138937.0M" magvar="9.96" region="SA" ident="PTA" name="LA PLATA" /><Ndb lat="-34.7895276546478" lon="-56.2630279362202" alt="61.874M" type="H" frequency="0395.00" range="138937.0M" magvar="11.38" region="SU" ident="ASI" name="ADAMI (MONTEVIDEO)" /><Ndb lat="-35.3527778014541" lon="-57.3072221875191" alt="22.25M" type="H" frequency="0325.00" range="138937.0M" magvar="10.2" region="SA" ident="PDI" name="PUNTA INDIO" /><Ndb lat="-34.8772221431136" lon="-56.0936111211777" alt="35.356M" type="MH" frequency="0298.00" range="69469.0M" magvar="11.46" region="SU" ident="BC" name="MONTEVIDEO" /><Ndb lat="-34.7684166580439" lon="-56.0260833799839" alt="32.613M" type="H" frequency="0380.00" range="138937.0M" magvar="11.58" region="SU" ident="CAR" name="CARRASCO (MONTEVIDEO)" /><Ndb lat="-34.8163889721036" lon="-56.0305555164814" alt="21.031M" type="H" frequency="0305.00" range="138937.0M" magvar="11.55" region="SU" ident="CRO" name="CARRASCO (MONTEVIDEO)" /><Ndb lat="-34.862222224474" lon="-55.1003055274487" alt="29.565M" type="H" frequency="0239.00" range="138937.0M" magvar="12.23" region="SU" ident="LS" name="CAPITAN CURBELO (MALDONADO)" /><Ndb lat="-37.234722264111" lon="-57.0233331620693" alt="2.743M" type="H" frequency="0242.00" range="138937.0M" magvar="9.19" region="SA" ident="GES" name="VILLA GESSELL" /><Ndb lat="-37.9395276680589" lon="-57.5756666064262" alt="21.945M" type="H" frequency="0385.00" range="138937.0M" magvar="8.26" region="SA" ident="MDP" name="MAR DEL PLATA" /></FSData>