<FSData version="9.0"><Vor dme="TRUE" dmeOnly="FALSE" lat="52.7182750403881" lon="174.062147140503" alt="20.726M" type="HIGH" frequency="109.000" range="361237.0M" magvar="0.46" region="PA" ident="SYA" name="SHEMYA"><Dme lat="52.7182750403881" lon="174.062147140503" alt="20.726M" range="361237.0M" /></Vor><Ndb lat="59.9133332446218" lon="150.615000128746" alt="152.095M" type="HH" frequency="0375.00" range="208406.0M" magvar="11.7" region="UH" ident="FK" name="MAGADAN" /><Ndb lat="59.9083332717419" lon="150.821666568518" alt="195.072M" type="HH" frequency="0375.00" range="208406.0M" magvar="11.63" region="UH" ident="WA" name="MAGADAN" /><Ndb lat="60.2000000327826" lon="154.683333188295" alt="10.363M" type="HH" frequency="0995.00" range="208406.0M" magvar="10.24" region="UH" ident="TA" name="TAKHTAYAMSK" /><Ndb lat="57.1466668322682" lon="156.768333613873" alt="76.2M" type="HH" frequency="0965.00" range="208406.0M" magvar="8.77" region="UH" ident="UH" name="UST-KHAIRYUZOVO" /><Ndb lat="61.824999935925" lon="160.513333529234" alt="152.4M" type="HH" frequency="0460.00" range="208406.0M" magvar="8.13" region="UH" ident="MA" name="CHAYBUKHA" /><Ndb lat="59.2383332177997" lon="163.068333417177" alt="76.2M" type="HH" frequency="0600.00" range="208406.0M" magvar="6.5" region="UH" ident="OS" name="OSSORA" /><Ndb lat="62.4166667461395" lon="166.099999845028" alt="10.363M" type="H" frequency="0430.00" range="138937.0M" magvar="5.69" region="UH" ident="KM" name="KAMENSKOE" /><Ndb lat="64.6683332696557" lon="170.310000032187" alt="24.384M" type="HH" frequency="0325.00" range="208406.0M" magvar="4.05" region="UH" ident="AM" name="MARKOVO" /><Ndb lat="64.690000154078" lon="177.710000127554" alt="80.467M" type="HH" frequency="0790.00" range="208406.0M" magvar="0.32" region="UH" ident="KB" name="ANADYR" /><Ndb lat="64.784999974072" lon="177.769999802113" alt="80.467M" type="HH" frequency="0790.00" range="208406.0M" magvar="0.3" region="UH" ident="UX" name="ANADYR" /><Ndb lat="63.0333334207535" lon="179.299999773502" alt="12.192M" type="HH" frequency="0640.00" range="208406.0M" magvar="-0.71" region="UH" ident="BE" name="BERINGOVSKY" /><Ndb lat="60.3999999538064" lon="165.999999940395" alt="0.914M" type="HH" frequency="0820.00" range="208406.0M" magvar="5.38" region="UH" ident="TK" name="TILICHIKI" /><Ndb lat="52.8166668489575" lon="156.266666650772" alt="37.49M" type="HH" frequency="0907.00" range="208406.0M" magvar="8.04" region="UH" ident="UB" name="UST-BOLSHERETSK" /><Ndb lat="54.7066666558385" lon="158.610000014305" alt="76.2M" type="HH" frequency="0592.00" range="208406.0M" magvar="7.52" region="UH" ident="MW" name="MILKOVO" /><Ndb lat="56.2233334779739" lon="162.685000151396" alt="15.849M" type="HH" frequency="0410.00" range="208406.0M" magvar="6.11" region="UH" ident="UK" name="UST-KAMCHATSK" /><Ndb lat="53.3166668191552" lon="157.533333152533" alt="284.988M" type="HH" frequency="0345.00" range="208406.0M" magvar="7.66" region="UH" ident="MK" name="MALKA" /><Ndb lat="53.0016668513417" lon="158.791666477919" alt="5.181M" type="H" frequency="0685.00" range="138937.0M" magvar="7.09" region="UH" ident="HY" name="KHALAKTYRKA" /><Ndb lat="53.113333247602" lon="158.489999771118" alt="39.928M" type="HH" frequency="0535.00" range="208406.0M" magvar="7.24" region="UH" ident="PR" name="PETROPAVLOVSK-KAMCHATSKY" /><Ndb lat="52.8289111331105" lon="173.180305659771" alt="12.192M" type="MH" frequency="0375.00" range="69469.0M" magvar="0.87" region="PA" ident="ATU" name="ATTU" /><Ndb lat="52.7219972759485" lon="174.060286134481" alt="0.0M" type="H" frequency="0403.00" range="138937.0M" magvar="0.46" region="PA" ident="SYA" name="SHEMYA" /></FSData>