<FSData version="9.0"><Vor dme="TRUE" dmeOnly="FALSE" lat="-14.9504167959094" lon="-147.673583328724" alt="3.048M" type="HIGH" frequency="112.300" range="361237.0M" magvar="-12.21" region="NT" ident="RAN" name="RANGIROA"><Dme lat="-14.9504167959094" lon="-147.673583328724" alt="3.048M" range="361237.0M" /></Vor><Vor dme="TRUE" dmeOnly="TRUE" lat="-14.9504167959094" lon="-147.673583328724" alt="12.192M" type="HIGH" frequency="115.300" range="361237.0M" magvar="-12.21" region="NT" ident="RD" name="RANGIROA"><Dme lat="-14.9504167959094" lon="-147.673583328724" alt="12.192M" range="361237.0M" /></Vor><Vor dme="TRUE" dmeOnly="FALSE" lat="-17.5471112877131" lon="-149.601499736309" alt="1.828M" type="HIGH" frequency="112.900" range="361237.0M" magvar="-13.0" region="NT" ident="TAF" name="TAHITI"><Dme lat="-17.5471112877131" lon="-149.601499736309" alt="1.828M" range="361237.0M" /></Vor><Vor dme="TRUE" dmeOnly="FALSE" lat="-18.0819444358349" lon="-140.940833240747" alt="11.582M" type="HIGH" frequency="113.800" range="361237.0M" magvar="-12.97" region="NT" ident="HAO" name="HAO I"><Dme lat="-18.0819444358349" lon="-140.940833240747" alt="11.582M" range="361237.0M" /></Vor><Ndb lat="-8.79444435238838" lon="-140.220277905464" alt="0.0M" type="H" frequency="0353.00" range="138937.0M" magvar="-10.57" region="NT" ident="NH" name="NUKU HIVA" /><Ndb lat="-8.93555570393801" lon="-139.551666676998" alt="48.158M" type="H" frequency="0372.00" range="138937.0M" magvar="-10.58" region="NT" ident="UK" name="UA HUKA" /><Ndb lat="-9.7713890299201" lon="-139.015833288431" alt="556.564M" type="H" frequency="0383.00" range="138937.0M" magvar="-10.73" region="NT" ident="HV" name="HIVA OA" /><Ndb lat="-9.75222229957581" lon="-139.001111090183" alt="561.136M" type="H" frequency="0294.00" range="138937.0M" magvar="-10.73" region="NT" ident="AN" name="ATUONA" /><Ndb lat="-14.9559166654944" lon="-147.660444527864" alt="0.304M" type="MH" frequency="0358.00" range="69469.0M" magvar="-12.21" region="NT" ident="OA" name="RANGIROA" /><Ndb lat="-14.4327779486775" lon="-146.062222123146" alt="0.0M" type="H" frequency="0284.50" range="138937.0M" magvar="-12.05" region="NT" ident="MH" name="MANIHI" /><Ndb lat="-14.7147223725915" lon="-145.252499878407" alt="0.0M" type="H" frequency="0349.00" range="138937.0M" magvar="-12.11" region="NT" ident="TP" name="TAKAPOTO" /><Ndb lat="-16.0555556416512" lon="-145.65416648984" alt="0.0M" type="H" frequency="0393.00" range="138937.0M" magvar="-12.5" region="NT" ident="FK" name="FAKARAVA" /><Ndb lat="-16.590277813375" lon="-143.651388734579" alt="0.0M" type="MH" frequency="0383.00" range="69469.0M" magvar="-12.61" region="NT" ident="MK" name="MAKEMO" /><Ndb lat="-14.1722221300006" lon="-141.264722049236" alt="0.0M" type="H" frequency="0376.00" range="138937.0M" magvar="-11.86" region="NT" ident="NP" name="NAPUKA" /><Ndb lat="-15.8166667073965" lon="-140.883333384991" alt="0.609M" type="H" frequency="0339.00" range="138937.0M" magvar="-12.3" region="NT" ident="FN" name="FANGATAU" /><Ndb lat="-17.5529722496867" lon="-149.613777548075" alt="2.438M" type="H" frequency="0305.00" range="138937.0M" magvar="-13.0" region="NT" ident="FA" name="TAHITI" /><Ndb lat="-17.4783334136009" lon="-149.774444550276" alt="5.486M" type="H" frequency="0377.50" range="138937.0M" magvar="-12.98" region="NT" ident="MO" name="MOOREA-TEMAE" /><Ndb lat="-17.3555556312203" lon="-145.481666475534" alt="0.0M" type="H" frequency="0332.50" range="138937.0M" magvar="-12.88" region="NT" ident="AA" name="ANAA" /><Ndb lat="-18.0633332580328" lon="-140.962222069502" alt="16.764M" type="H" frequency="0370.00" range="138937.0M" magvar="-12.97" region="NT" ident="AO" name="HAO" /><Ndb lat="-18.4666667506099" lon="-136.433333158493" alt="15.544M" type="H" frequency="0327.50" range="138937.0M" magvar="-12.89" region="NT" ident="RE" name="REAO" /></FSData>