<FSData version="9.0"><Vor dme="TRUE" dmeOnly="FALSE" lat="43.5600000992417" lon="122.198333144188" alt="0.304M" type="HIGH" frequency="116.300" range="361237.0M" magvar="9.92" region="ZY" ident="TGO" name="TONGLIAO"><Dme lat="43.5600000992417" lon="122.198333144188" alt="0.304M" range="361237.0M" /></Vor><Vor dme="TRUE" dmeOnly="FALSE" lat="44.9116668105125" lon="124.80499997735" alt="76.2M" type="HIGH" frequency="113.700" range="361237.0M" magvar="10.8" region="ZY" ident="FYU" name="FUYU"><Dme lat="44.9116668105125" lon="124.80499997735" alt="76.2M" range="361237.0M" /></Vor><Vor dme="TRUE" dmeOnly="FALSE" lat="43.8966666162014" lon="125.189999789" alt="234.086M" type="HIGH" frequency="115.300" range="361237.0M" magvar="10.56" region="ZY" ident="CGQ" name="CHANGCHUN"><Dme lat="43.8966666162014" lon="125.189999789" alt="234.086M" range="361237.0M" /></Vor><Vor dme="TRUE" dmeOnly="FALSE" lat="42.6333334296942" lon="124.008333384991" alt="0.304M" type="HIGH" frequency="114.900" range="361237.0M" magvar="10.0" region="ZY" ident="KYU" name="KAIYUAN"><Dme lat="42.6333334296942" lon="124.008333384991" alt="0.304M" range="361237.0M" /></Vor><Vor dme="TRUE" dmeOnly="FALSE" lat="41.5366666764021" lon="120.433333218098" alt="0.304M" type="HIGH" frequency="114.500" range="361237.0M" magvar="8.96" region="ZY" ident="CHG" name="CHAOYANG"><Dme lat="41.5366666764021" lon="120.433333218098" alt="0.304M" range="361237.0M" /></Vor><Vor dme="TRUE" dmeOnly="FALSE" lat="41.641666777432" lon="122.116666585207" alt="0.304M" type="HIGH" frequency="116.500" range="361237.0M" magvar="9.36" region="ZY" ident="DHN" name="DAHUSHAN"><Dme lat="41.641666777432" lon="122.116666585207" alt="0.304M" range="361237.0M" /></Vor><Vor dme="TRUE" dmeOnly="FALSE" lat="41.6383334621787" lon="123.479999899864" alt="58.826M" type="HIGH" frequency="114.100" range="361237.0M" magvar="9.62" region="ZY" ident="SEY" name="SHENYANG"><Dme lat="41.6383334621787" lon="123.479999899864" alt="58.826M" range="361237.0M" /></Vor><Vor dme="TRUE" dmeOnly="FALSE" lat="40.86166664958" lon="123.133333325386" alt="304.8M" type="HIGH" frequency="117.600" range="361237.0M" magvar="9.34" region="ZY" ident="LCH" name="LONGCHANG"><Dme lat="40.86166664958" lon="123.133333325386" alt="304.8M" range="361237.0M" /></Vor><Vor dme="TRUE" dmeOnly="FALSE" lat="40.2600002288818" lon="124.288333207369" alt="0.304M" type="HIGH" frequency="113.900" range="361237.0M" magvar="9.36" region="ZY" ident="DDG" name="DANDONG"><Dme lat="40.2600002288818" lon="124.288333207369" alt="0.304M" range="361237.0M" /></Vor><Vor dme="TRUE" dmeOnly="FALSE" lat="43.2950001955032" lon="129.78333324194" alt="0.304M" type="HIGH" frequency="112.100" range="361237.0M" magvar="10.82" region="ZY" ident="WQG" name="WANGQING"><Dme lat="43.2950001955032" lon="129.78333324194" alt="0.304M" range="361237.0M" /></Vor><Vor dme="TRUE" dmeOnly="FALSE" lat="42.883333414793" lon="129.448333382607" alt="201.472M" type="HIGH" frequency="113.100" range="361237.0M" magvar="10.68" region="ZY" ident="YNJ" name="YANJI"><Dme lat="42.883333414793" lon="129.448333382607" alt="201.472M" range="361237.0M" /></Vor><Vor dme="TRUE" dmeOnly="FALSE" lat="38.9599999040365" lon="121.513333171606" alt="42.976M" type="HIGH" frequency="112.300" range="361237.0M" magvar="8.5" region="ZY" ident="DLC" name="DALIAN"><Dme lat="38.9599999040365" lon="121.513333171606" alt="42.976M" range="361237.0M" /></Vor><Vor dme="TRUE" dmeOnly="FALSE" lat="37.6549999415874" lon="120.544999837875" alt="1417.015M" type="HIGH" frequency="116.100" range="361237.0M" magvar="7.94" region="ZS" ident="HCH" name="HUANGCHENG"><Dme lat="37.6549999415874" lon="120.544999837875" alt="1417.015M" range="361237.0M" /></Vor><Vor dme="TRUE" dmeOnly="FALSE" lat="37.3866667225957" lon="121.356666684151" alt="17.983M" type="HIGH" frequency="113.500" range="361237.0M" magvar="8.04" region="ZS" ident="YNT" name="YANTAI"><Dme lat="37.3866667225957" lon="121.356666684151" alt="17.983M" range="361237.0M" /></Vor><Vor dme="TRUE" dmeOnly="FALSE" lat="39.2338889837265" lon="125.672500133514" alt="21.64M" type="HIGH" frequency="111.400" range="361237.0M" magvar="9.26" region="ZK" ident="GK" name="Pyeongyang"><Dme lat="39.2338889837265" lon="125.672500133514" alt="21.64M" range="361237.0M" /></Vor><Vor dme="TRUE" dmeOnly="FALSE" lat="37.4949166551232" lon="126.430333256721" alt="7.01M" type="TERMINAL" frequency="113.800" range="69469.0M" magvar="8.84" region="RK" ident="NCN" name="INCHEON"><Dme lat="37.4949166551232" lon="126.430333256721" alt="7.01M" range="69469.0M" /></Vor><Vor dme="TRUE" dmeOnly="FALSE" lat="37.413888797164" lon="126.928611248732" alt="274.32M" type="HIGH" frequency="115.500" range="361237.0M" magvar="8.86" region="RK" ident="SEL" name="ANYANG"><Dme lat="37.413888797164" lon="126.928611248732" alt="274.32M" range="361237.0M" /></Vor><Vor dme="TRUE" dmeOnly="FALSE" lat="37.7480554953218" lon="126.991111189127" alt="416.966M" type="LOW" frequency="114.900" range="111150.0M" magvar="8.97" region="RK" ident="YJU" name="YANGJU"><Dme lat="37.7480554953218" lon="126.991111189127" alt="416.966M" range="111150.0M" /></Vor><Vor dme="TRUE" dmeOnly="TRUE" lat="37.4311112612486" lon="127.111110985279" alt="20.421M" type="HIGH" frequency="110.900" range="361237.0M" magvar="8.89" region="RK" ident="SOL" name="SEOUL"><Dme lat="37.4311112612486" lon="127.111110985279" alt="20.421M" range="361237.0M" /></Vor><Vor dme="TRUE" dmeOnly="FALSE" lat="37.4394445493817" lon="127.107777893543" alt="30.48M" type="HIGH" frequency="113.000" range="361237.0M" magvar="8.89" region="RK" ident="KSM" name="SEOUL"><Dme lat="37.4394445493817" lon="127.107777893543" alt="30.48M" range="361237.0M" /></Vor><Vor dme="TRUE" dmeOnly="FALSE" lat="37.557527795434" lon="126.792027801275" alt="11.582M" type="TERMINAL" frequency="113.600" range="69469.0M" magvar="8.89" region="RK" ident="KIP" name="GIMPO (SEOUL)"><Dme lat="37.557527795434" lon="126.792027801275" alt="11.582M" range="69469.0M" /></Vor><Vor dme="TRUE" dmeOnly="TRUE" lat="36.7089777812362" lon="126.481830328703" alt="12.192M" type="HIGH" frequency="111.500" range="361237.0M" magvar="8.62" region="RK" ident="SAN" name="SEOSAN"><Dme lat="36.7089777812362" lon="126.481830328703" alt="12.192M" range="361237.0M" /></Vor><Vor dme="TRUE" dmeOnly="FALSE" lat="36.7177777737379" lon="127.494166642427" alt="58.216M" type="HIGH" frequency="109.000" range="361237.0M" magvar="8.71" region="RK" ident="CHO" name="CHEONGJU"><Dme lat="36.7177777737379" lon="127.494166642427" alt="58.216M" range="361237.0M" /></Vor><Vor dme="TRUE" dmeOnly="FALSE" lat="37.0919445902109" lon="127.029722481966" alt="10.668M" type="HIGH" frequency="114.700" range="361237.0M" magvar="8.78" region="RK" ident="OSN" name="OSAN"><Dme lat="37.0919445902109" lon="127.029722481966" alt="10.668M" range="361237.0M" /></Vor><Vor dme="TRUE" dmeOnly="FALSE" lat="36.968333311379" lon="127.023333460093" alt="15.24M" type="TERMINAL" frequency="108.200" range="69469.0M" magvar="8.74" region="RK" ident="PTK" name="Pyeongtaek"><Dme lat="36.968333311379" lon="127.023333460093" alt="15.24M" range="69469.0M" /></Vor><Vor dme="TRUE" dmeOnly="TRUE" lat="37.2400001809001" lon="127.00166657567" alt="26.212M" type="HIGH" frequency="109.200" range="361237.0M" magvar="8.82" region="RK" ident="SWN" name="SUWON"><Dme lat="37.2400001809001" lon="127.00166657567" alt="26.212M" range="361237.0M" /></Vor><Vor dme="TRUE" dmeOnly="TRUE" lat="36.710000038147" lon="127.494999915361" alt="60.96M" type="HIGH" frequency="110.500" range="361237.0M" magvar="8.71" region="RK" ident="CHJ" name="CHEONGJU"><Dme lat="36.710000038147" lon="127.494999915361" alt="60.96M" range="361237.0M" /></Vor><Vor dme="TRUE" dmeOnly="FALSE" lat="36.2881418690085" lon="120.368455499411" alt="18.288M" type="TERMINAL" frequency="117.500" range="69469.0M" magvar="7.55" region="ZS" ident="TAO" name="QINGDAO"><Dme lat="36.2881418690085" lon="120.368455499411" alt="18.288M" range="69469.0M" /></Vor><Vor dme="TRUE" dmeOnly="FALSE" lat="35.9616667404771" lon="120.240000039339" alt="30.48M" type="HIGH" frequency="117.000" range="361237.0M" magvar="7.44" region="ZS" ident="XJT" name="XUEJIADAO"><Dme lat="35.9616667404771" lon="120.240000039339" alt="30.48M" range="361237.0M" /></Vor><Vor dme="TRUE" dmeOnly="FALSE" lat="35.9103611111641" lon="126.611360907555" alt="6.4M" type="HIGH" frequency="112.800" range="361237.0M" magvar="8.4" region="RK" ident="KUZ" name="GUNSAN"><Dme lat="35.9103611111641" lon="126.611360907555" alt="6.4M" range="361237.0M" /></Vor><Vor dme="TRUE" dmeOnly="FALSE" lat="34.7596944496036" lon="126.378861218691" alt="18.897M" type="HIGH" frequency="111.200" range="361237.0M" magvar="8.04" region="RK" ident="MKP" name="MOKPO"><Dme lat="34.7596944496036" lon="126.378861218691" alt="18.897M" range="361237.0M" /></Vor><Vor dme="TRUE" dmeOnly="TRUE" lat="35.1213889941573" lon="126.801388710737" alt="12.801M" type="HIGH" frequency="114.100" range="361237.0M" magvar="8.18" region="RK" ident="KWJ" name="GWANGJU"><Dme lat="35.1213889941573" lon="126.801388710737" alt="12.801M" range="361237.0M" /></Vor><Vor dme="TRUE" dmeOnly="FALSE" lat="35.1095832511783" lon="126.800749897957" alt="12.192M" type="HIGH" frequency="114.400" range="361237.0M" magvar="8.18" region="RK" ident="KWA" name="GWANGJU"><Dme lat="35.1095832511783" lon="126.800749897957" alt="12.192M" range="361237.0M" /></Vor><Vor dme="TRUE" dmeOnly="FALSE" lat="38.1477777287364" lon="128.60111117363" alt="30.48M" type="HIGH" frequency="111.000" range="361237.0M" magvar="9.21" region="RK" ident="SCH" name="SOKCHO"><Dme lat="38.1477777287364" lon="128.60111117363" alt="30.48M" range="361237.0M" /></Vor><Vor dme="TRUE" dmeOnly="FALSE" lat="38.0633612349629" lon="128.661472052336" alt="103.022M" type="TERMINAL" frequency="110.600" range="69469.0M" magvar="9.19" region="RK" ident="YAG" name="YANGYANG"><Dme lat="38.0633612349629" lon="128.661472052336" alt="103.022M" range="69469.0M" /></Vor><Vor dme="TRUE" dmeOnly="FALSE" lat="37.475805580616" lon="127.975027710199" alt="144.475M" type="HIGH" frequency="110.200" range="361237.0M" magvar="8.97" region="RK" ident="HGS" name="WONJU"><Dme lat="37.475805580616" lon="127.975027710199" alt="144.475M" range="361237.0M" /></Vor><Vor dme="TRUE" dmeOnly="TRUE" lat="37.4749999120831" lon="127.97499999404" alt="100.584M" type="HIGH" frequency="111.600" range="361237.0M" magvar="8.97" region="RK" ident="WNJ" name="WONJU (HOENGSEONG)"><Dme lat="37.4749999120831" lon="127.97499999404" alt="100.584M" range="361237.0M" /></Vor><Vor dme="TRUE" dmeOnly="FALSE" lat="37.7005555853248" lon="128.75361084938" alt="944.88M" type="HIGH" frequency="115.600" range="361237.0M" magvar="9.08" region="RK" ident="KAE" name="GANGWON"><Dme lat="37.7005555853248" lon="128.75361084938" alt="944.88M" range="361237.0M" /></Vor><Vor dme="TRUE" dmeOnly="FALSE" lat="37.7588889375329" lon="128.950278013945" alt="10.668M" type="HIGH" frequency="113.500" range="361237.0M" magvar="9.11" region="RK" ident="KOG" name="GANGNEUNG"><Dme lat="37.7588889375329" lon="128.950278013945" alt="10.668M" range="361237.0M" /></Vor><Vor dme="TRUE" dmeOnly="TRUE" lat="37.7583333849907" lon="128.951666504145" alt="5.486M" type="HIGH" frequency="111.900" range="361237.0M" magvar="9.11" region="RK" ident="KAN" name="GANGNEUNG"><Dme lat="37.7583333849907" lon="128.951666504145" alt="5.486M" range="361237.0M" /></Vor><Vor dme="TRUE" dmeOnly="FALSE" lat="36.6320278868079" lon="128.325389027596" alt="109.728M" type="HIGH" frequency="114.800" range="361237.0M" magvar="8.74" region="RK" ident="CUN" name="YECHEON"><Dme lat="36.6320278868079" lon="128.325389027596" alt="109.728M" range="361237.0M" /></Vor><Vor dme="TRUE" dmeOnly="TRUE" lat="37.0299999788404" lon="127.884999811649" alt="85.648M" type="HIGH" frequency="111.300" range="361237.0M" magvar="8.83" region="RK" ident="JWN" name="Jungwon"><Dme lat="37.0299999788404" lon="127.884999811649" alt="85.648M" range="361237.0M" /></Vor><Vor dme="TRUE" dmeOnly="TRUE" lat="36.6350001096725" lon="128.36666688323" alt="109.728M" type="HIGH" frequency="108.900" range="361237.0M" magvar="8.74" region="RK" ident="YCN" name="YECHEON"><Dme lat="36.6350001096725" lon="128.36666688323" alt="109.728M" range="361237.0M" /></Vor><Vor dme="TRUE" dmeOnly="TRUE" lat="35.9016000106931" lon="128.642474859953" alt="35.356M" type="HIGH" frequency="117.800" range="361237.0M" magvar="8.54" region="RK" ident="TAG" name="DAEGU"><Dme lat="35.9016000106931" lon="128.642474859953" alt="35.356M" range="361237.0M" /></Vor><Vor dme="TRUE" dmeOnly="FALSE" lat="35.9038889408112" lon="128.641389012337" alt="35.356M" type="HIGH" frequency="116.500" range="361237.0M" magvar="8.54" region="RK" ident="DOC" name="DONGCHEON"><Dme lat="35.9038889408112" lon="128.641389012337" alt="35.356M" range="361237.0M" /></Vor><Vor dme="TRUE" dmeOnly="FALSE" lat="35.5984999984503" lon="129.353277683258" alt="21.031M" type="HIGH" frequency="111.400" range="361237.0M" magvar="8.48" region="RK" ident="USN" name="ULSAN"><Dme lat="35.5984999984503" lon="129.353277683258" alt="21.031M" range="361237.0M" /></Vor><Vor dme="TRUE" dmeOnly="FALSE" lat="35.8100002259016" lon="128.59083339572" alt="36.576M" type="HIGH" frequency="112.200" range="361237.0M" magvar="8.51" region="RK" ident="TGU" name="DALSEONG"><Dme lat="35.8100002259016" lon="128.59083339572" alt="36.576M" range="361237.0M" /></Vor><Vor dme="TRUE" dmeOnly="TRUE" lat="35.1808334514499" lon="128.949444293976" alt="3.962M" type="HIGH" frequency="117.000" range="361237.0M" magvar="8.34" region="RK" ident="KHE" name="GIMHAE (BUSAN)"><Dme lat="35.1808334514499" lon="128.949444293976" alt="3.962M" range="361237.0M" /></Vor><Vor dme="TRUE" dmeOnly="FALSE" lat="35.9863779321313" lon="129.408827573061" alt="35.661M" type="HIGH" frequency="109.600" range="361237.0M" magvar="8.6" region="RK" ident="NPH" name="NAVY (POHANG)"><Dme lat="35.9863779321313" lon="129.408827573061" alt="35.661M" range="361237.0M" /></Vor><Vor dme="TRUE" dmeOnly="FALSE" lat="35.9771974012256" lon="129.474535882473" alt="255.727M" type="HIGH" frequency="112.500" range="361237.0M" magvar="8.6" region="RK" ident="KPO" name="POHANG"><Dme lat="35.9771974012256" lon="129.474535882473" alt="255.727M" range="361237.0M" /></Vor><Vor dme="TRUE" dmeOnly="FALSE" lat="34.8428610339761" lon="127.619111090899" alt="20.116M" type="HIGH" frequency="115.700" range="361237.0M" magvar="8.17" region="RK" ident="YSU" name="YEOSU"><Dme lat="34.8428610339761" lon="127.619111090899" alt="20.116M" range="361237.0M" /></Vor><Vor dme="TRUE" dmeOnly="FALSE" lat="35.0980557873845" lon="128.07666644454" alt="11.582M" type="HIGH" frequency="115.100" range="361237.0M" magvar="8.27" region="RK" ident="SAC" name="SACHEON (CHINJU)"><Dme lat="35.0980557873845" lon="128.07666644454" alt="11.582M" range="361237.0M" /></Vor><Vor dme="TRUE" dmeOnly="TRUE" lat="35.0983333960176" lon="128.078333437443" alt="7.62M" type="HIGH" frequency="110.000" range="361237.0M" magvar="8.27" region="RK" ident="SCN" name="SACHEON"><Dme lat="35.0983333960176" lon="128.078333437443" alt="7.62M" range="361237.0M" /></Vor><Vor dme="TRUE" dmeOnly="FALSE" lat="35.1557779312134" lon="128.940055668354" alt="8.534M" type="HIGH" frequency="113.800" range="361237.0M" magvar="8.33" region="RK" ident="KMH" name="GIMHAE"><Dme lat="35.1557779312134" lon="128.940055668354" alt="8.534M" range="361237.0M" /></Vor><Vor dme="TRUE" dmeOnly="FALSE" lat="35.123333260417" lon="128.99972230196" alt="3.962M" type="HIGH" frequency="114.000" range="361237.0M" magvar="8.33" region="RK" ident="PSN" name="BUSAN"><Dme lat="35.123333260417" lon="128.99972230196" alt="3.962M" range="361237.0M" /></Vor><Vor dme="TRUE" dmeOnly="TRUE" lat="34.1325001046062" lon="129.280555397272" alt="181.965M" type="HIGH" frequency="113.600" range="361237.0M" magvar="8.04" region="RJ" ident="VCT" name="SHIMOTSUSHIMA"><Dme lat="34.1325001046062" lon="129.280555397272" alt="181.965M" range="361237.0M" /></Vor><Vor dme="TRUE" dmeOnly="FALSE" lat="34.2815085500479" lon="129.337010979652" alt="67.056M" type="HIGH" frequency="111.450" range="361237.0M" magvar="8.09" region="RJ" ident="VCE" name="TSUSHIMA"><Dme lat="34.2815085500479" lon="129.337010979652" alt="67.056M" range="361237.0M" /></Vor><Vor dme="TRUE" dmeOnly="TRUE" lat="34.7716668248177" lon="131.138055324554" alt="198.729M" type="HIGH" frequency="110.600" range="361237.0M" magvar="8.26" region="RJ" ident="MIT" name="MISHIMA"><Dme lat="34.7716668248177" lon="131.138055324554" alt="198.729M" range="361237.0M" /></Vor><Vor dme="TRUE" dmeOnly="FALSE" lat="33.8297749310732" lon="130.955736190081" alt="20.116M" type="HIGH" frequency="110.650" range="361237.0M" magvar="7.97" region="RJ" ident="KOE" name="KOKURA (KITAKYUSHU)"><Dme lat="33.8297749310732" lon="130.955736190081" alt="20.116M" range="361237.0M" /></Vor><Vor dme="TRUE" dmeOnly="FALSE" lat="34.190711081028" lon="131.016188710928" alt="680.923M" type="HIGH" frequency="117.200" range="361237.0M" magvar="8.08" region="RJ" ident="TTE" name="TOYOTA (KITAKYUSHU)"><Dme lat="34.190711081028" lon="131.016188710928" alt="680.923M" range="361237.0M" /></Vor><Vor dme="TRUE" dmeOnly="FALSE" lat="33.8352057337761" lon="130.852480530739" alt="138.379M" type="HIGH" frequency="109.450" range="361237.0M" magvar="7.98" region="RJ" ident="KQE" name="KITAKYUSHU"><Dme lat="33.8352057337761" lon="130.852480530739" alt="138.379M" range="361237.0M" /></Vor><Vor dme="TRUE" dmeOnly="TRUE" lat="34.0441665798426" lon="131.049722135067" alt="15.24M" type="HIGH" frequency="112.150" range="361237.0M" magvar="8.04" region="RJ" ident="OCT" name="OZUKI (SHIMONOSEKI)"><Dme lat="34.0441665798426" lon="131.049722135067" alt="15.24M" range="361237.0M" /></Vor><Vor dme="TRUE" dmeOnly="TRUE" lat="33.8883332535625" lon="130.650277733803" alt="29.87M" type="HIGH" frequency="108.600" range="361237.0M" magvar="7.99" region="RJ" ident="AHT" name="ASHIYA"><Dme lat="33.8883332535625" lon="130.650277733803" alt="29.87M" range="361237.0M" /></Vor><Vor dme="TRUE" dmeOnly="FALSE" lat="35.4172389954329" lon="132.892372012138" alt="13.106M" type="HIGH" frequency="113.400" range="361237.0M" magvar="8.43" region="RJ" ident="XZE" name="IZUMO"><Dme lat="35.4172389954329" lon="132.892372012138" alt="13.106M" range="361237.0M" /></Vor><Vor dme="TRUE" dmeOnly="FALSE" lat="35.5311168730259" lon="133.093914091587" alt="518.16M" type="HIGH" frequency="116.700" range="361237.0M" magvar="8.45" region="RJ" ident="JEC" name="MIHO (YONAGO)"><Dme lat="35.5311168730259" lon="133.093914091587" alt="518.16M" range="361237.0M" /></Vor><Vor dme="TRUE" dmeOnly="FALSE" lat="36.176741681993" lon="133.32282230258" alt="82.296M" type="HIGH" frequency="109.250" range="361237.0M" magvar="8.65" region="RJ" ident="OIE" name="OKI"><Dme lat="36.176741681993" lon="133.32282230258" alt="82.296M" range="361237.0M" /></Vor><Vor dme="TRUE" dmeOnly="FALSE" lat="35.4934361949563" lon="133.232527971268" alt="11.887M" type="HIGH" frequency="114.100" range="361237.0M" magvar="8.44" region="RJ" ident="YVE" name="YONAGO"><Dme lat="35.4934361949563" lon="133.232527971268" alt="11.887M" range="361237.0M" /></Vor><Vor dme="TRUE" dmeOnly="FALSE" lat="35.5273000895977" lon="134.164886176586" alt="35.052M" type="HIGH" frequency="110.200" range="361237.0M" magvar="8.4" region="RJ" ident="TRE" name="TOTTORI"><Dme lat="35.5273000895977" lon="134.164886176586" alt="35.052M" range="361237.0M" /></Vor><Vor dme="TRUE" dmeOnly="FALSE" lat="35.5181390047073" lon="134.791366606951" alt="210.007M" type="HIGH" frequency="110.450" range="361237.0M" magvar="8.36" region="RJ" ident="THE" name="TAJIMA"><Dme lat="35.5181390047073" lon="134.791366606951" alt="210.007M" range="361237.0M" /></Vor><Vor dme="TRUE" dmeOnly="FALSE" lat="34.6762445569038" lon="131.779880672693" alt="67.36M" type="HIGH" frequency="115.050" range="361237.0M" magvar="8.23" region="RJ" ident="IME" name="IWAMI"><Dme lat="34.6762445569038" lon="131.779880672693" alt="67.36M" range="361237.0M" /></Vor><Vor dme="TRUE" dmeOnly="FALSE" lat="33.9356279745698" lon="131.28353074193" alt="14.935M" type="HIGH" frequency="110.800" range="361237.0M" magvar="8.01" region="RJ" ident="UBE" name="UBE (YAMAGUCHI)"><Dme lat="33.9356279745698" lon="131.28353074193" alt="14.935M" range="361237.0M" /></Vor><Vor dme="TRUE" dmeOnly="TRUE" lat="34.0383334457874" lon="131.545833349228" alt="2.133M" type="HIGH" frequency="113.000" range="361237.0M" magvar="8.03" region="RJ" ident="FMT" name="HOFU"><Dme lat="34.0383334457874" lon="131.545833349228" alt="2.133M" range="361237.0M" /></Vor><Vor dme="TRUE" dmeOnly="FALSE" lat="34.0794557332993" lon="132.147269546986" alt="653.796M" type="HIGH" frequency="114.300" range="361237.0M" magvar="8.03" region="RJ" ident="IWC" name="KUGA"><Dme lat="34.0794557332993" lon="132.147269546986" alt="653.796M" range="361237.0M" /></Vor><Vor dme="TRUE" dmeOnly="TRUE" lat="34.1374085471034" lon="132.230252623558" alt="2.438M" type="HIGH" frequency="109.800" range="361237.0M" magvar="8.05" region="RJ" ident="NEU" name="IWAKUNI"><Dme lat="34.1374085471034" lon="132.230252623558" alt="2.438M" range="361237.0M" /></Vor><Vor dme="TRUE" dmeOnly="FALSE" lat="34.3593304976821" lon="132.41050824523" alt="9.144M" type="HIGH" frequency="109.850" range="361237.0M" magvar="8.12" region="RJ" ident="KPE" name="KAN'ON"><Dme lat="34.3593304976821" lon="132.41050824523" alt="9.144M" range="361237.0M" /></Vor><Vor dme="TRUE" dmeOnly="FALSE" lat="33.8129889965057" lon="132.717635929585" alt="19.507M" type="HIGH" frequency="116.300" range="361237.0M" magvar="7.94" region="RJ" ident="MPE" name="MATSUYAMA"><Dme lat="33.8129889965057" lon="132.717635929585" alt="19.507M" range="361237.0M" /></Vor><Vor dme="TRUE" dmeOnly="FALSE" lat="34.4337752088904" lon="132.923969328403" alt="342.29M" type="HIGH" frequency="117.900" range="361237.0M" magvar="8.12" region="RJ" ident="HGE" name="HONGO (HIROSHIMA)"><Dme lat="34.4337752088904" lon="132.923969328403" alt="342.29M" range="361237.0M" /></Vor><Vor dme="TRUE" dmeOnly="FALSE" lat="34.6713776886463" lon="134.015130400658" alt="238.658M" type="HIGH" frequency="115.900" range="361237.0M" magvar="8.14" region="RJ" ident="OKC" name="OKAYAMA"><Dme lat="34.6713776886463" lon="134.015130400658" alt="238.658M" range="361237.0M" /></Vor><Vor dme="TRUE" dmeOnly="FALSE" lat="34.7503834962845" lon="133.83505538106" alt="268.224M" type="HIGH" frequency="111.000" range="361237.0M" magvar="8.18" region="RJ" ident="OYE" name="KIBI"><Dme lat="34.7503834962845" lon="133.83505538106" alt="268.224M" range="361237.0M" /></Vor><Vor dme="TRUE" dmeOnly="FALSE" lat="34.5123639330268" lon="134.274213910103" alt="771.448M" type="HIGH" frequency="114.400" range="361237.0M" magvar="8.07" region="RJ" ident="STE" name="SHODO"><Dme lat="34.5123639330268" lon="134.274213910103" alt="771.448M" range="361237.0M" /></Vor><Vor dme="TRUE" dmeOnly="FALSE" lat="34.3264472857118" lon="133.953461050987" alt="489.813M" type="HIGH" frequency="117.500" range="361237.0M" magvar="8.03" region="RJ" ident="TZC" name="TAKAMATSU"><Dme lat="34.3264472857118" lon="133.953461050987" alt="489.813M" range="361237.0M" /></Vor><Vor dme="TRUE" dmeOnly="FALSE" lat="34.2124973237515" lon="134.022591859102" alt="212.14M" type="HIGH" frequency="108.400" range="361237.0M" magvar="8.0" region="RJ" ident="KTE" name="KAGAWA (TAKAMATSU)"><Dme lat="34.2124973237515" lon="134.022591859102" alt="212.14M" range="361237.0M" /></Vor><Vor dme="TRUE" dmeOnly="TRUE" lat="34.0041667968035" lon="134.625555574894" alt="2.438M" type="HIGH" frequency="113.550" range="361237.0M" magvar="7.89" region="RJ" ident="KJT" name="KOMATSUJIMA"><Dme lat="34.0041667968035" lon="134.625555574894" alt="2.438M" range="361237.0M" /></Vor><Vor dme="TRUE" dmeOnly="FALSE" lat="34.1296807676554" lon="134.60893034935" alt="1.524M" type="HIGH" frequency="114.900" range="361237.0M" magvar="7.93" region="RJ" ident="TSC" name="TOKUSHIMA"><Dme lat="34.1296807676554" lon="134.60893034935" alt="1.524M" range="361237.0M" /></Vor><Vor dme="TRUE" dmeOnly="FALSE" lat="34.2703029513359" lon="134.712941497564" alt="269.443M" type="HIGH" frequency="115.600" range="361237.0M" magvar="7.97" region="RJ" ident="AJE" name="AWAJI"><Dme lat="34.2703029513359" lon="134.712941497564" alt="269.443M" range="361237.0M" /></Vor><Vor dme="TRUE" dmeOnly="FALSE" lat="43.6672639846802" lon="142.456847280264" alt="234.391M" type="HIGH" frequency="113.500" range="361237.0M" magvar="9.83" region="RJ" ident="AWE" name="ASAHIKAWA"><Dme lat="43.6672639846802" lon="142.456847280264" alt="234.391M" range="361237.0M" /></Vor><Vor dme="TRUE" dmeOnly="FALSE" lat="43.1746417656541" lon="141.302383393049" alt="26.517M" type="HIGH" frequency="113.900" range="361237.0M" magvar="9.91" region="RJ" ident="SPE" name="SAPPORO"><Dme lat="43.1746417656541" lon="141.302383393049" alt="26.517M" range="361237.0M" /></Vor><Vor dme="TRUE" dmeOnly="FALSE" lat="42.6999028399587" lon="141.68616682291" alt="26.822M" type="HIGH" frequency="116.900" range="361237.0M" magvar="9.69" region="RJ" ident="CHE" name="CHITOSE"><Dme lat="42.6999028399587" lon="141.68616682291" alt="26.822M" range="361237.0M" /></Vor><Vor dme="TRUE" dmeOnly="FALSE" lat="42.5550055503845" lon="141.955630481243" alt="28.651M" type="HIGH" frequency="116.400" range="361237.0M" magvar="9.6" region="RJ" ident="MKE" name="MUKAWA (SAPPORO)"><Dme lat="42.5550055503845" lon="141.955630481243" alt="28.651M" range="361237.0M" /></Vor><Vor dme="TRUE" dmeOnly="TRUE" lat="42.7644445002079" lon="141.673610955477" alt="27.127M" type="HIGH" frequency="109.200" range="361237.0M" magvar="9.71" region="RJ" ident="ZYT" name="CHITOSE (SAPPORO)"><Dme lat="42.7644445002079" lon="141.673610955477" alt="27.127M" range="361237.0M" /></Vor><Vor dme="TRUE" dmeOnly="FALSE" lat="42.070302888751" lon="139.443402886391" alt="51.206M" type="HIGH" frequency="109.850" range="361237.0M" magvar="9.89" region="RJ" ident="ORE" name="OKUSHIRI"><Dme lat="42.070302888751" lon="139.443402886391" alt="51.206M" range="361237.0M" /></Vor><Vor dme="TRUE" dmeOnly="TRUE" lat="41.4353693649173" lon="140.084841549397" alt="91.44M" type="HIGH" frequency="112.100" range="361237.0M" magvar="9.59" region="RJ" ident="WMT" name="MATSUMAE"><Dme lat="41.4353693649173" lon="140.084841549397" alt="91.44M" range="361237.0M" /></Vor><Vor dme="TRUE" dmeOnly="FALSE" lat="41.7740307748318" lon="140.832216739655" alt="91.44M" type="HIGH" frequency="112.300" range="361237.0M" magvar="9.57" region="RJ" ident="HWE" name="HAKODATE"><Dme lat="41.7740307748318" lon="140.832216739655" alt="91.44M" range="361237.0M" /></Vor><Vor dme="TRUE" dmeOnly="TRUE" lat="41.2308334931731" lon="141.135833412409" alt="13.411M" type="HIGH" frequency="114.850" range="361237.0M" magvar="9.35" region="RJ" ident="OMT" name="OMINATO"><Dme lat="41.2308334931731" lon="141.135833412409" alt="13.411M" range="361237.0M" /></Vor><Vor dme="TRUE" dmeOnly="FALSE" lat="40.8089139685035" lon="141.157363951206" alt="135.331M" type="HIGH" frequency="114.900" range="361237.0M" magvar="9.21" region="RJ" ident="MWE" name="TOHOKU"><Dme lat="40.8089139685035" lon="141.157363951206" alt="135.331M" range="361237.0M" /></Vor><Vor dme="TRUE" dmeOnly="FALSE" lat="40.1983416080475" lon="140.361855626106" alt="93.878M" type="HIGH" frequency="114.750" range="361237.0M" magvar="9.16" region="RJ" ident="ODE" name="ODATE-NOSHIRO"><Dme lat="40.1983416080475" lon="140.361855626106" alt="93.878M" range="361237.0M" /></Vor><Vor dme="TRUE" dmeOnly="FALSE" lat="39.7115666046739" lon="140.062308311462" alt="16.459M" type="HIGH" frequency="116.100" range="361237.0M" magvar="9.06" region="RJ" ident="ATE" name="AKITA"><Dme lat="39.7115666046739" lon="140.062308311462" alt="16.459M" range="361237.0M" /></Vor><Vor dme="TRUE" dmeOnly="FALSE" lat="39.6171277016401" lon="140.18693625927" alt="87.172M" type="HIGH" frequency="110.650" range="361237.0M" magvar="9.01" region="RJ" ident="UWE" name="YUWA (AKITA)"><Dme lat="39.6171277016401" lon="140.18693625927" alt="87.172M" range="361237.0M" /></Vor><Vor dme="TRUE" dmeOnly="FALSE" lat="40.7387916371226" lon="140.705333501101" alt="232.867M" type="HIGH" frequency="114.100" range="361237.0M" magvar="9.27" region="RJ" ident="MRE" name="AOMORI"><Dme lat="40.7387916371226" lon="140.705333501101" alt="232.867M" range="361237.0M" /></Vor><Vor dme="TRUE" dmeOnly="FALSE" lat="40.703822337091" lon="141.381108462811" alt="36.271M" type="HIGH" frequency="115.400" range="361237.0M" magvar="9.14" region="RJ" ident="MIS" name="MISAWA"><Dme lat="40.703822337091" lon="141.381108462811" alt="36.271M" range="361237.0M" /></Vor><Vor dme="TRUE" dmeOnly="TRUE" lat="40.555833466351" lon="141.469999998808" alt="46.024M" type="HIGH" frequency="108.600" range="361237.0M" magvar="9.07" region="RJ" ident="HVT" name="HACHINOHE"><Dme lat="40.555833466351" lon="141.469999998808" alt="46.024M" range="361237.0M" /></Vor><Vor dme="TRUE" dmeOnly="FALSE" lat="39.4333584979177" lon="141.133499890566" alt="103.327M" type="HIGH" frequency="112.800" range="361237.0M" magvar="8.78" region="RJ" ident="HPE" name="HANAMAKI"><Dme lat="39.4333584979177" lon="141.133499890566" alt="103.327M" range="361237.0M" /></Vor><Vor dme="TRUE" dmeOnly="FALSE" lat="39.8656390607357" lon="141.951066702604" alt="191.414M" type="HIGH" frequency="116.600" range="361237.0M" magvar="8.76" region="RJ" ident="MQE" name="MIYAKO"><Dme lat="39.8656390607357" lon="141.951066702604" alt="191.414M" range="361237.0M" /></Vor><Vor dme="TRUE" dmeOnly="FALSE" lat="44.3052666261792" lon="143.395091593266" alt="14.02M" type="HIGH" frequency="112.900" range="361237.0M" magvar="9.82" region="RJ" ident="MVE" name="MONBETSU"><Dme lat="44.3052666261792" lon="143.395091593266" alt="14.02M" range="361237.0M" /></Vor><Vor dme="TRUE" dmeOnly="FALSE" lat="43.8849084824324" lon="144.166183322668" alt="40.233M" type="HIGH" frequency="110.850" range="361237.0M" magvar="9.52" region="RJ" ident="TBE" name="MEMANBETSU"><Dme lat="43.8849084824324" lon="144.166183322668" alt="40.233M" range="361237.0M" /></Vor><Vor dme="TRUE" dmeOnly="FALSE" lat="43.0338029935956" lon="144.204113781452" alt="101.803M" type="HIGH" frequency="112.500" range="361237.0M" magvar="9.26" region="RJ" ident="KSE" name="KUSHIRO"><Dme lat="43.0338029935956" lon="144.204113781452" alt="101.803M" range="361237.0M" /></Vor><Vor dme="TRUE" dmeOnly="FALSE" lat="42.7339638769627" lon="143.220452964306" alt="161.848M" type="HIGH" frequency="109.650" range="361237.0M" magvar="9.39" region="RJ" ident="OBE" name="OBIHIRO"><Dme lat="42.7339638769627" lon="143.220452964306" alt="161.848M" range="361237.0M" /></Vor><Vor dme="TRUE" dmeOnly="FALSE" lat="43.5773610323668" lon="144.950502812862" alt="80.162M" type="HIGH" frequency="111.450" range="361237.0M" magvar="9.24" region="RJ" ident="NSE" name="NAKASHIBETSU"><Dme lat="43.5773610323668" lon="144.950502812862" alt="80.162M" range="361237.0M" /></Vor><Vor dme="TRUE" dmeOnly="FALSE" lat="37.2899610176682" lon="136.962911188602" alt="239.572M" type="HIGH" frequency="111.450" range="361237.0M" magvar="8.72" region="RJ" ident="NTE" name="NOTO"><Dme lat="37.2899610176682" lon="136.962911188602" alt="239.572M" range="361237.0M" /></Vor><Vor dme="TRUE" dmeOnly="FALSE" lat="36.6521890461445" lon="137.19111084938" alt="35.356M" type="HIGH" frequency="110.850" range="361237.0M" magvar="8.49" region="RJ" ident="TOE" name="TOYAMA"><Dme lat="36.6521890461445" lon="137.19111084938" alt="35.356M" range="361237.0M" /></Vor><Vor dme="TRUE" dmeOnly="FALSE" lat="38.810780569911" lon="139.799308329821" alt="49.377M" type="HIGH" frequency="109.600" range="361237.0M" magvar="8.82" region="RJ" ident="YSE" name="SHONAI"><Dme lat="38.810780569911" lon="139.799308329821" alt="49.377M" range="361237.0M" /></Vor><Vor dme="FALSE" dmeOnly="FALSE" lat="38.1900027394295" lon="140.335800200701" alt="365.76M" type="HIGH" frequency="113.750" range="361237.0M" magvar="8.53" region="RJ" ident="ZMO" name="ZAO-YAMADA" /><Vor dme="TRUE" dmeOnly="FALSE" lat="38.388622328639" lon="140.35795301199" alt="110.032M" type="HIGH" frequency="113.000" range="361237.0M" magvar="8.59" region="RJ" ident="YTE" name="YAMAGATA"><Dme lat="38.388622328639" lon="140.35795301199" alt="110.032M" range="361237.0M" /></Vor><Vor dme="TRUE" dmeOnly="TRUE" lat="38.4038891270757" lon="141.225555539131" alt="2.133M" type="HIGH" frequency="114.300" range="361237.0M" magvar="8.44" region="RJ" ident="MXT" name="MATSUSHIMA"><Dme lat="38.4038891270757" lon="141.225555539131" alt="2.133M" range="361237.0M" /></Vor><Vor dme="TRUE" dmeOnly="FALSE" lat="38.1385723873973" lon="140.921483337879" alt="16.459M" type="HIGH" frequency="116.300" range="361237.0M" magvar="8.41" region="RJ" ident="SDE" name="SENDAI"><Dme lat="38.1385723873973" lon="140.921483337879" alt="16.459M" range="361237.0M" /></Vor><Vor dme="TRUE" dmeOnly="FALSE" lat="37.9582944139838" lon="139.114885926247" alt="11.887M" type="HIGH" frequency="115.500" range="361237.0M" magvar="8.65" region="RJ" ident="GTC" name="NIIGATA"><Dme lat="37.9582944139838" lon="139.114885926247" alt="11.887M" range="361237.0M" /></Vor><Vor dme="TRUE" dmeOnly="FALSE" lat="36.7826721444726" lon="140.035800039768" alt="231.952M" type="HIGH" frequency="114.800" range="361237.0M" magvar="8.13" region="RJ" ident="NZE" name="NASU"><Dme lat="36.7826721444726" lon="140.035800039768" alt="231.952M" range="361237.0M" /></Vor><Vor dme="TRUE" dmeOnly="FALSE" lat="36.7443668469787" lon="140.349850058556" alt="451.104M" type="HIGH" frequency="115.300" range="361237.0M" magvar="8.06" region="RJ" ident="GOC" name="DAIGO"><Dme lat="36.7443668469787" lon="140.349850058556" alt="451.104M" range="361237.0M" /></Vor><Vor dme="TRUE" dmeOnly="FALSE" lat="37.2243055701256" lon="140.437086224556" alt="400.202M" type="HIGH" frequency="113.450" range="361237.0M" magvar="8.2" region="RJ" ident="FKE" name="FUKUSHIMA"><Dme lat="37.2243055701256" lon="140.437086224556" alt="400.202M" range="361237.0M" /></Vor><Vor dme="TRUE" dmeOnly="FALSE" lat="37.1488640829921" lon="140.975685864687" alt="162.763M" type="HIGH" frequency="117.700" range="361237.0M" magvar="8.08" region="RJ" ident="IXE" name="IWAKI"><Dme lat="37.1488640829921" lon="140.975685864687" alt="162.763M" range="361237.0M" /></Vor><Vor dme="TRUE" dmeOnly="FALSE" lat="36.3964695855975" lon="136.404252648354" alt="5.486M" type="HIGH" frequency="112.000" range="361237.0M" magvar="8.49" region="RJ" ident="KMC" name="KOMATSU"><Dme lat="36.3964695855975" lon="136.404252648354" alt="5.486M" range="361237.0M" /></Vor><Vor dme="TRUE" dmeOnly="FALSE" lat="35.480691678822" lon="135.137022435665" alt="740.054M" type="HIGH" frequency="112.600" range="361237.0M" magvar="8.32" region="RJ" ident="YME" name="MIYAZU"><Dme lat="35.480691678822" lon="135.137022435665" alt="740.054M" range="361237.0M" /></Vor><Vor dme="TRUE" dmeOnly="TRUE" lat="35.3913888707757" lon="136.858610808849" alt="44.5M" type="HIGH" frequency="112.250" range="361237.0M" magvar="8.12" region="RJ" ident="GFT" name="GIFU"><Dme lat="35.3913888707757" lon="136.858610808849" alt="44.5M" range="361237.0M" /></Vor><Vor dme="TRUE" dmeOnly="FALSE" lat="36.1559750139713" lon="137.91981652379" alt="688.848M" type="HIGH" frequency="117.600" range="361237.0M" magvar="8.24" region="RJ" ident="MBE" name="MATSUMOTO"><Dme lat="36.1559750139713" lon="137.91981652379" alt="688.848M" range="361237.0M" /></Vor><Vor dme="TRUE" dmeOnly="FALSE" lat="35.2652667090297" lon="136.914925128222" alt="22.555M" type="HIGH" frequency="114.200" range="361237.0M" magvar="8.08" region="RJ" ident="KCC" name="NAGOYA"><Dme lat="35.2652667090297" lon="136.914925128222" alt="22.555M" range="361237.0M" /></Vor><Vor dme="TRUE" dmeOnly="FALSE" lat="34.4919472932816" lon="135.44833034277" alt="74.371M" type="HIGH" frequency="112.300" range="361237.0M" magvar="7.98" region="RJ" ident="SKE" name="SHINODA"><Dme lat="34.4919472932816" lon="135.44833034277" alt="74.371M" range="361237.0M" /></Vor><Vor dme="TRUE" dmeOnly="FALSE" lat="35.0170473754406" lon="135.826002806425" alt="480.364M" type="HIGH" frequency="117.100" range="361237.0M" magvar="8.11" region="RJ" ident="CUE" name="OTSU"><Dme lat="35.0170473754406" lon="135.826002806425" alt="480.364M" range="361237.0M" /></Vor><Vor dme="TRUE" dmeOnly="FALSE" lat="34.7760361433029" lon="135.451613813639" alt="23.164M" type="HIGH" frequency="113.900" range="361237.0M" magvar="8.07" region="RJ" ident="OWE" name="OSAKA"><Dme lat="34.7760361433029" lon="135.451613813639" alt="23.164M" range="361237.0M" /></Vor><Vor dme="TRUE" dmeOnly="FALSE" lat="34.5984584838152" lon="135.593705624342" alt="30.784M" type="HIGH" frequency="114.600" range="361237.0M" magvar="8.0" region="RJ" ident="YOE" name="YAO"><Dme lat="34.5984584838152" lon="135.593705624342" alt="30.784M" range="361237.0M" /></Vor><Vor dme="TRUE" dmeOnly="FALSE" lat="34.6283778548241" lon="135.662041604519" alt="455.371M" type="HIGH" frequency="111.600" range="361237.0M" magvar="8.0" region="RJ" ident="SIE" name="SHIGI"><Dme lat="34.6283778548241" lon="135.662041604519" alt="455.371M" range="361237.0M" /></Vor><Vor dme="TRUE" dmeOnly="TRUE" lat="34.5285279303789" lon="136.675166487694" alt="6.096M" type="HIGH" frequency="112.050" range="361237.0M" magvar="7.87" region="RJ" ident="AKT" name="AKENO"><Dme lat="34.5285279303789" lon="136.675166487694" alt="6.096M" range="361237.0M" /></Vor><Vor dme="TRUE" dmeOnly="FALSE" lat="34.8580057919025" lon="136.803169548512" alt="11.887M" type="HIGH" frequency="117.800" range="361237.0M" magvar="7.96" region="RJ" ident="CBE" name="CHUBU"><Dme lat="34.8580057919025" lon="136.803169548512" alt="11.887M" range="361237.0M" /></Vor><Vor dme="TRUE" dmeOnly="FALSE" lat="34.4300861656666" lon="135.251783430576" alt="12.801M" type="HIGH" frequency="111.800" range="361237.0M" magvar="7.97" region="RJ" ident="KNE" name="KANSAI"><Dme lat="34.4300861656666" lon="135.251783430576" alt="12.801M" range="361237.0M" /></Vor><Vor dme="TRUE" dmeOnly="FALSE" lat="34.2804363369942" lon="135.005646944046" alt="129.54M" type="HIGH" frequency="116.400" range="361237.0M" magvar="7.95" region="RJ" ident="TME" name="TOMO"><Dme lat="34.2804363369942" lon="135.005646944046" alt="129.54M" range="361237.0M" /></Vor><Vor dme="TRUE" dmeOnly="FALSE" lat="33.9100973680615" lon="135.106177479029" alt="340.766M" type="HIGH" frequency="116.900" range="361237.0M" magvar="7.82" region="RJ" ident="GBE" name="GOBOH"><Dme lat="33.9100973680615" lon="135.106177479029" alt="340.766M" range="361237.0M" /></Vor><Vor dme="TRUE" dmeOnly="TRUE" lat="34.7472221776843" lon="137.709999829531" alt="45.72M" type="HIGH" frequency="114.700" range="361237.0M" magvar="7.81" region="RJ" ident="LHT" name="HAMAMATSU"><Dme lat="34.7472221776843" lon="137.709999829531" alt="45.72M" range="361237.0M" /></Vor><Vor dme="TRUE" dmeOnly="FALSE" lat="34.7478695958853" lon="137.680658251047" alt="64.312M" type="HIGH" frequency="110.000" range="361237.0M" magvar="7.82" region="RJ" ident="LHE" name="HAMAMATSU"><Dme lat="34.7478695958853" lon="137.680658251047" alt="64.312M" range="361237.0M" /></Vor><Vor dme="TRUE" dmeOnly="FALSE" lat="34.7046360746026" lon="136.957947313786" alt="104.546M" type="HIGH" frequency="113.500" range="361237.0M" magvar="7.89" region="RJ" ident="XMC" name="KOWA"><Dme lat="34.7046360746026" lon="136.957947313786" alt="104.546M" range="361237.0M" /></Vor><Vor dme="TRUE" dmeOnly="TRUE" lat="34.8144443705678" lon="138.295833170414" alt="23.774M" type="HIGH" frequency="109.200" range="361237.0M" magvar="7.76" region="RJ" ident="YZT" name="SHIZUHAMA (YAIZU)"><Dme lat="34.8144443705678" lon="138.295833170414" alt="23.774M" range="361237.0M" /></Vor><Vor dme="TRUE" dmeOnly="FALSE" lat="36.0212000459433" lon="140.205499827862" alt="34.747M" type="HIGH" frequency="116.000" range="361237.0M" magvar="7.85" region="RJ" ident="TLE" name="AMI"><Dme lat="36.0212000459433" lon="140.205499827862" alt="34.747M" range="361237.0M" /></Vor><Vor dme="TRUE" dmeOnly="TRUE" lat="36.1883335188031" lon="140.415000021458" alt="32.004M" type="HIGH" frequency="113.300" range="361237.0M" magvar="7.87" region="RJ" ident="HUT" name="HYAKURI"><Dme lat="36.1883335188031" lon="140.415000021458" alt="32.004M" range="361237.0M" /></Vor><Vor dme="TRUE" dmeOnly="FALSE" lat="36.0109251737595" lon="139.83917221427" alt="35.052M" type="HIGH" frequency="117.000" range="361237.0M" magvar="7.91" region="RJ" ident="SYE" name="SEKIYADO"><Dme lat="36.0109251737595" lon="139.83917221427" alt="35.052M" range="361237.0M" /></Vor><Vor dme="TRUE" dmeOnly="FALSE" lat="35.9348252043128" lon="139.981452673674" alt="40.233M" type="HIGH" frequency="114.000" range="361237.0M" magvar="7.86" region="RJ" ident="SNE" name="MORIYA (TOKYO)"><Dme lat="35.9348252043128" lon="139.981452673674" alt="40.233M" range="361237.0M" /></Vor><Vor dme="TRUE" dmeOnly="TRUE" lat="35.7487804815173" lon="139.350127726793" alt="139.293M" type="HIGH" frequency="113.800" range="361237.0M" magvar="7.9" region="RJ" ident="YOK" name="YOKOTA (TOKYO)"><Dme lat="35.7487804815173" lon="139.350127726793" alt="139.293M" range="361237.0M" /></Vor><Vor dme="TRUE" dmeOnly="TRUE" lat="35.8400000631809" lon="139.415000081062" alt="89.916M" type="HIGH" frequency="110.600" range="361237.0M" magvar="7.92" region="RJ" ident="YLT" name="IRUMA"><Dme lat="35.8400000631809" lon="139.415000081062" alt="89.916M" range="361237.0M" /></Vor><Vor dme="TRUE" dmeOnly="FALSE" lat="35.2558249980211" lon="139.587522000074" alt="149.352M" type="HIGH" frequency="116.200" range="361237.0M" magvar="7.7" region="RJ" ident="HYE" name="YOKOSUKA"><Dme lat="35.2558249980211" lon="139.587522000074" alt="149.352M" range="361237.0M" /></Vor><Vor dme="TRUE" dmeOnly="TRUE" lat="35.4458333551884" lon="139.453888982534" alt="62.484M" type="HIGH" frequency="115.100" range="361237.0M" magvar="7.79" region="RJ" ident="NJA" name="ATSUGI"><Dme lat="35.4458333551884" lon="139.453888982534" alt="62.484M" range="361237.0M" /></Vor><Vor dme="TRUE" dmeOnly="FALSE" lat="35.6090417504311" lon="139.815458357334" alt="23.774M" type="HIGH" frequency="115.000" range="361237.0M" magvar="7.78" region="RJ" ident="KWE" name="KOHTOH"><Dme lat="35.6090417504311" lon="139.815458357334" alt="23.774M" range="361237.0M" /></Vor><Vor dme="TRUE" dmeOnly="FALSE" lat="35.4023637995124" lon="139.903436154127" alt="13.716M" type="HIGH" frequency="114.500" range="361237.0M" magvar="7.7" region="RJ" ident="KZE" name="KISARAZU"><Dme lat="35.4023637995124" lon="139.903436154127" alt="13.716M" range="361237.0M" /></Vor><Vor dme="TRUE" dmeOnly="FALSE" lat="35.1835444942117" lon="140.3707498312" alt="111.252M" type="HIGH" frequency="115.700" range="361237.0M" magvar="7.55" region="RJ" ident="OJC" name="ONJUKU"><Dme lat="35.1835444942117" lon="140.3707498312" alt="111.252M" range="361237.0M" /></Vor><Vor dme="TRUE" dmeOnly="FALSE" lat="35.5623166635633" lon="139.76114988327" alt="19.202M" type="HIGH" frequency="112.200" range="361237.0M" magvar="7.78" region="RJ" ident="HME" name="HANEDA (TOKYO)"><Dme lat="35.5623166635633" lon="139.76114988327" alt="19.202M" range="361237.0M" /></Vor><Vor dme="TRUE" dmeOnly="FALSE" lat="35.7835861667991" lon="140.262986272573" alt="29.565M" type="HIGH" frequency="112.700" range="361237.0M" magvar="7.76" region="RJ" ident="TYE" name="SAKURA"><Dme lat="35.7835861667991" lon="140.262986272573" alt="29.565M" range="361237.0M" /></Vor><Vor dme="TRUE" dmeOnly="FALSE" lat="35.7823473215103" lon="140.362536013126" alt="46.939M" type="HIGH" frequency="117.900" range="361237.0M" magvar="7.75" region="RJ" ident="NRE" name="NARITA (TOKYO)"><Dme lat="35.7823473215103" lon="140.362536013126" alt="46.939M" range="361237.0M" /></Vor><Vor dme="TRUE" dmeOnly="TRUE" lat="35.8019445464015" lon="140.009999871254" alt="29.87M" type="HIGH" frequency="108.200" range="361237.0M" magvar="7.81" region="RJ" ident="SHT" name="SHIMOFUSA (MATSUDO)"><Dme lat="35.8019445464015" lon="140.009999871254" alt="29.87M" range="361237.0M" /></Vor><Vor dme="TRUE" dmeOnly="FALSE" lat="35.8089612051845" lon="140.375388711691" alt="49.987M" type="HIGH" frequency="117.300" range="361237.0M" magvar="7.75" region="RJ" ident="HKE" name="HOKUSO (TOKYO)"><Dme lat="35.8089612051845" lon="140.375388711691" alt="49.987M" range="361237.0M" /></Vor><Vor dme="TRUE" dmeOnly="FALSE" lat="35.7264363393188" lon="140.799530446529" alt="71.932M" type="HIGH" frequency="113.600" range="361237.0M" magvar="7.65" region="RJ" ident="CVC" name="CHOSHI"><Dme lat="35.7264363393188" lon="140.799530446529" alt="71.932M" range="361237.0M" /></Vor><Vor dme="TRUE" dmeOnly="FALSE" lat="34.7122528776526" lon="139.414016604424" alt="636.422M" type="HIGH" frequency="113.100" range="361237.0M" magvar="7.55" region="RJ" ident="XAC" name="OSHIMA"><Dme lat="34.7122528776526" lon="139.414016604424" alt="636.422M" range="361237.0M" /></Vor><Vor dme="TRUE" dmeOnly="FALSE" lat="34.78774163872" lon="139.364849925041" alt="47.548M" type="HIGH" frequency="109.850" range="361237.0M" magvar="7.59" region="RJ" ident="OSE" name="MIHARA (OSHIMA)"><Dme lat="34.78774163872" lon="139.364849925041" alt="47.548M" range="361237.0M" /></Vor><Vor dme="TRUE" dmeOnly="TRUE" lat="34.9708252027631" lon="139.837894588709" alt="30.48M" type="HIGH" frequency="108.800" range="361237.0M" magvar="7.57" region="RJ" ident="TET" name="TATEYAMA"><Dme lat="34.9708252027631" lon="139.837894588709" alt="30.48M" range="361237.0M" /></Vor><Vor dme="TRUE" dmeOnly="FALSE" lat="34.9463946372271" lon="139.895527660847" alt="189.28M" type="HIGH" frequency="112.500" range="361237.0M" magvar="7.55" region="RJ" ident="PQE" name="TATEYAMA"><Dme lat="34.9463946372271" lon="139.895527660847" alt="189.28M" range="361237.0M" /></Vor><Vor dme="TRUE" dmeOnly="FALSE" lat="34.1190307214856" lon="139.498458355665" alt="43.891M" type="HIGH" frequency="109.000" range="361237.0M" magvar="7.35" region="RJ" ident="MJE" name="MIYAKEJIMA"><Dme lat="34.1190307214856" lon="139.498458355665" alt="43.891M" range="361237.0M" /></Vor><Vor dme="TRUE" dmeOnly="FALSE" lat="34.3481000885367" lon="139.271252900362" alt="28.651M" type="HIGH" frequency="116.500" range="361237.0M" magvar="7.46" region="RJ" ident="NJC" name="NIIJIMA"><Dme lat="34.3481000885367" lon="139.271252900362" alt="28.651M" range="361237.0M" /></Vor><Vor dme="TRUE" dmeOnly="FALSE" lat="34.0710416436195" lon="139.561288654804" alt="19.202M" type="HIGH" frequency="108.650" range="361237.0M" magvar="7.32" region="RJ" ident="MOE" name="OYAMA"><Dme lat="34.0710416436195" lon="139.561288654804" alt="19.202M" range="361237.0M" /></Vor><Vor dme="TRUE" dmeOnly="FALSE" lat="31.583333350718" lon="120.333333313465" alt="27.127M" type="HIGH" frequency="113.900" range="361237.0M" magvar="6.35" region="ZS" ident="VMB" name="WUXI"><Dme lat="31.583333350718" lon="120.333333313465" alt="27.127M" range="361237.0M" /></Vor><Vor dme="TRUE" dmeOnly="FALSE" lat="31.3683335110545" lon="121.843333393335" alt="0.304M" type="HIGH" frequency="114.400" range="361237.0M" magvar="6.55" region="ZS" ident="HSH" name="HENGSHA"><Dme lat="31.3683335110545" lon="121.843333393335" alt="0.304M" range="361237.0M" /></Vor><Vor dme="TRUE" dmeOnly="FALSE" lat="31.1250001564622" lon="121.339999884367" alt="3.048M" type="HIGH" frequency="109.600" range="361237.0M" magvar="6.41" region="ZS" ident="JTG" name="JIUTING"><Dme lat="31.1250001564622" lon="121.339999884367" alt="3.048M" range="361237.0M" /></Vor><Vor dme="TRUE" dmeOnly="FALSE" lat="31.0816667228937" lon="121.5733332932" alt="0.304M" type="HIGH" frequency="114.600" range="361237.0M" magvar="6.43" region="ZS" ident="NHW" name="NANHUI"><Dme lat="31.0816667228937" lon="121.5733332932" alt="0.304M" range="361237.0M" /></Vor><Vor dme="TRUE" dmeOnly="FALSE" lat="31.1683332547545" lon="121.780000180006" alt="0.304M" type="HIGH" frequency="116.900" range="361237.0M" magvar="6.49" region="ZS" ident="PUD" name="PUDONG"><Dme lat="31.1683332547545" lon="121.780000180006" alt="0.304M" range="361237.0M" /></Vor><Vor dme="TRUE" dmeOnly="FALSE" lat="31.2000000849366" lon="121.331666707993" alt="14.02M" type="HIGH" frequency="117.200" range="361237.0M" magvar="6.42" region="ZS" ident="SHA" name="HONGQIAO"><Dme lat="31.2000000849366" lon="121.331666707993" alt="14.02M" range="361237.0M" /></Vor><Vor dme="TRUE" dmeOnly="FALSE" lat="30.9499997645617" lon="121.861666738987" alt="0.304M" type="HIGH" frequency="113.600" range="361237.0M" magvar="6.44" region="ZS" ident="SHY" name="SHUYUAN"><Dme lat="30.9499997645617" lon="121.861666738987" alt="0.304M" range="361237.0M" /></Vor><Vor dme="TRUE" dmeOnly="FALSE" lat="33.5113890096545" lon="126.487777680159" alt="45.72M" type="TERMINAL" frequency="109.000" range="69469.0M" magvar="7.69" region="RK" ident="YDM" name="YONG DAM (JEJU)"><Dme lat="33.5113890096545" lon="126.487777680159" alt="45.72M" range="69469.0M" /></Vor><Vor dme="TRUE" dmeOnly="FALSE" lat="33.3894443884492" lon="126.629722416401" alt="670.56M" type="HIGH" frequency="116.100" range="361237.0M" magvar="7.67" region="RK" ident="CJU" name="JEJU"><Dme lat="33.3894443884492" lon="126.629722416401" alt="670.56M" range="361237.0M" /></Vor><Vor dme="TRUE" dmeOnly="FALSE" lat="33.3973612636328" lon="126.709833294153" alt="357.835M" type="TERMINAL" frequency="117.900" range="69469.0M" magvar="7.68" region="RK" ident="JDG" name="JEDONG (JEJU)"><Dme lat="33.3973612636328" lon="126.709833294153" alt="357.835M" range="69469.0M" /></Vor><Vor dme="TRUE" dmeOnly="FALSE" lat="30.2399999275804" lon="120.458333194256" alt="13.106M" type="HIGH" frequency="113.000" range="361237.0M" magvar="6.04" region="ZS" ident="HGH" name="HANGZHOU"><Dme lat="30.2399999275804" lon="120.458333194256" alt="13.106M" range="361237.0M" /></Vor><Vor dme="TRUE" dmeOnly="FALSE" lat="30.2533335238695" lon="121.218333542347" alt="0.304M" type="HIGH" frequency="114.800" range="361237.0M" magvar="6.17" region="ZS" ident="AND" name="ANDONG"><Dme lat="30.2533335238695" lon="121.218333542347" alt="0.304M" range="361237.0M" /></Vor><Vor dme="TRUE" dmeOnly="FALSE" lat="30.1483334228396" lon="120.49833342433" alt="13.106M" type="HIGH" frequency="117.300" range="361237.0M" magvar="6.03" region="ZS" ident="DSH" name="DANGSHAN (HANGZHOU)"><Dme lat="30.1483334228396" lon="120.49833342433" alt="13.106M" range="361237.0M" /></Vor><Vor dme="TRUE" dmeOnly="FALSE" lat="29.8266668245196" lon="121.460000127554" alt="3.962M" type="HIGH" frequency="116.300" range="361237.0M" magvar="6.1" region="ZS" ident="NGB" name="NINGBO"><Dme lat="29.8266668245196" lon="121.460000127554" alt="3.962M" range="361237.0M" /></Vor><Vor dme="TRUE" dmeOnly="FALSE" lat="29.9316665902734" lon="122.361666709185" alt="0.304M" type="HIGH" frequency="112.300" range="361237.0M" magvar="6.26" region="ZS" ident="HSN" name="ZHOUSHAN"><Dme lat="29.9316665902734" lon="122.361666709185" alt="0.304M" range="361237.0M" /></Vor><Vor dme="TRUE" dmeOnly="FALSE" lat="32.6686057448387" lon="128.826735913754" alt="90.22M" type="HIGH" frequency="115.800" range="361237.0M" magvar="7.59" region="RJ" ident="FUE" name="FUKUE"><Dme lat="32.6686057448387" lon="128.826735913754" alt="90.22M" range="361237.0M" /></Vor><Vor dme="TRUE" dmeOnly="FALSE" lat="33.148619569838" lon="130.292897075415" alt="12.192M" type="HIGH" frequency="114.750" range="361237.0M" magvar="7.77" region="RJ" ident="SGE" name="SAGA"><Dme lat="33.148619569838" lon="130.292897075415" alt="12.192M" range="361237.0M" /></Vor><Vor dme="TRUE" dmeOnly="FALSE" lat="33.7475112453103" lon="129.77685302496" alt="66.751M" type="HIGH" frequency="113.200" range="361237.0M" magvar="7.94" region="RJ" ident="IKE" name="IKI (IKISHIMA)"><Dme lat="33.7475112453103" lon="129.77685302496" alt="66.751M" range="361237.0M" /></Vor><Vor dme="TRUE" dmeOnly="TRUE" lat="33.6880557239056" lon="131.038055419922" alt="16.764M" type="TERMINAL" frequency="110.400" range="69469.0M" magvar="7.93" region="RJ" ident="TQT" name="TSUIKI"><Dme lat="33.6880557239056" lon="131.038055419922" alt="16.764M" range="69469.0M" /></Vor><Vor dme="TRUE" dmeOnly="FALSE" lat="33.6762084066868" lon="130.389627814293" alt="19.812M" type="HIGH" frequency="114.500" range="361237.0M" magvar="7.93" region="RJ" ident="DGC" name="FUKUOKA"><Dme lat="33.6762084066868" lon="130.389627814293" alt="19.812M" range="361237.0M" /></Vor><Vor dme="TRUE" dmeOnly="FALSE" lat="32.905247323215" lon="129.917980581522" alt="46.939M" type="HIGH" frequency="116.600" range="361237.0M" magvar="7.69" region="RJ" ident="OLE" name="NAGASAKI"><Dme lat="32.905247323215" lon="129.917980581522" alt="46.939M" range="361237.0M" /></Vor><Vor dme="TRUE" dmeOnly="FALSE" lat="32.4809751659632" lon="130.159619450569" alt="107.899M" type="HIGH" frequency="113.450" range="361237.0M" magvar="7.56" region="RJ" ident="AKE" name="AMAKUSA"><Dme lat="32.4809751659632" lon="130.159619450569" alt="107.899M" range="361237.0M" /></Vor><Vor dme="TRUE" dmeOnly="TRUE" lat="32.9258332774043" lon="129.932222217321" alt="24.384M" type="HIGH" frequency="114.050" range="361237.0M" magvar="7.69" region="RJ" ident="JBT" name="OMURA (NAGASAKI)"><Dme lat="32.9258332774043" lon="129.932222217321" alt="24.384M" range="361237.0M" /></Vor><Vor dme="TRUE" dmeOnly="FALSE" lat="32.8348027914763" lon="130.841513872147" alt="198.424M" type="HIGH" frequency="112.800" range="361237.0M" magvar="7.67" region="RJ" ident="KUE" name="KUMAMOTO"><Dme lat="32.8348027914763" lon="130.841513872147" alt="198.424M" range="361237.0M" /></Vor><Vor dme="TRUE" dmeOnly="FALSE" lat="31.6972222924232" lon="130.582941770554" alt="581.863M" type="HIGH" frequency="113.300" range="361237.0M" magvar="7.33" region="RJ" ident="HKC" name="KAGOSHIMA"><Dme lat="31.6972222924232" lon="130.582941770554" alt="581.863M" range="361237.0M" /></Vor><Vor dme="TRUE" dmeOnly="FALSE" lat="31.6438805311918" lon="130.842102617025" alt="456.895M" type="HIGH" frequency="117.300" range="361237.0M" magvar="7.31" region="RJ" ident="KBE" name="KOKUBU (KAGOSHIMA)"><Dme lat="31.6438805311918" lon="130.842102617025" alt="456.895M" range="361237.0M" /></Vor><Vor dme="TRUE" dmeOnly="FALSE" lat="31.797541603446" lon="130.726102888584" alt="274.32M" type="HIGH" frequency="115.700" range="361237.0M" magvar="7.36" region="RJ" ident="KGE" name="KAJIKI (KAGOSHIMA)"><Dme lat="31.797541603446" lon="130.726102888584" alt="274.32M" range="361237.0M" /></Vor><Vor dme="TRUE" dmeOnly="TRUE" lat="31.3627779856324" lon="130.830000042915" alt="65.227M" type="HIGH" frequency="113.800" range="361237.0M" magvar="7.23" region="RJ" ident="JAT" name="KANOYA"><Dme lat="31.3627779856324" lon="130.830000042915" alt="65.227M" range="361237.0M" /></Vor><Vor dme="TRUE" dmeOnly="FALSE" lat="33.4897140786052" lon="131.728755533695" alt="30.48M" type="HIGH" frequency="117.700" range="361237.0M" magvar="7.86" region="RJ" ident="TFE" name="MUSASHI (OITA)"><Dme lat="33.4897140786052" lon="131.728755533695" alt="30.48M" range="361237.0M" /></Vor><Vor dme="TRUE" dmeOnly="FALSE" lat="33.2203445211053" lon="131.703249961138" alt="94.792M" type="HIGH" frequency="112.100" range="361237.0M" magvar="7.78" region="RJ" ident="TAE" name="OITA"><Dme lat="33.2203445211053" lon="131.703249961138" alt="94.792M" range="361237.0M" /></Vor><Vor dme="TRUE" dmeOnly="FALSE" lat="32.7559696510434" lon="132.996647357941" alt="451.104M" type="HIGH" frequency="115.200" range="361237.0M" magvar="7.59" region="RJ" ident="SUC" name="SHIMIZU"><Dme lat="32.7559696510434" lon="132.996647357941" alt="451.104M" range="361237.0M" /></Vor><Vor dme="TRUE" dmeOnly="FALSE" lat="33.5417834669352" lon="133.680158257484" alt="16.459M" type="HIGH" frequency="113.700" range="361237.0M" magvar="7.81" region="RJ" ident="KRE" name="KOCHI"><Dme lat="33.5417834669352" lon="133.680158257484" alt="16.459M" range="361237.0M" /></Vor><Vor dme="TRUE" dmeOnly="TRUE" lat="32.0802776142955" lon="131.453610956669" alt="77.724M" type="HIGH" frequency="115.000" range="361237.0M" magvar="7.44" region="RJ" ident="NHT" name="NYUTABARU"><Dme lat="32.0802776142955" lon="131.453610956669" alt="77.724M" range="361237.0M" /></Vor><Vor dme="TRUE" dmeOnly="FALSE" lat="31.8787277117372" lon="131.437466740608" alt="16.459M" type="HIGH" frequency="112.400" range="361237.0M" magvar="7.37" region="RJ" ident="MZE" name="MIYAZAKI"><Dme lat="31.8787277117372" lon="131.437466740608" alt="16.459M" range="361237.0M" /></Vor><Vor dme="TRUE" dmeOnly="FALSE" lat="30.3797446936369" lon="130.662433058023" alt="57.912M" type="HIGH" frequency="117.000" range="361237.0M" magvar="6.93" region="RJ" ident="YKE" name="YAKUSHIMA"><Dme lat="30.3797446936369" lon="130.662433058023" alt="57.912M" range="361237.0M" /></Vor><Vor dme="TRUE" dmeOnly="FALSE" lat="30.3900862857699" lon="130.651222318411" alt="42.367M" type="HIGH" frequency="115.400" range="361237.0M" magvar="6.94" region="RJ" ident="KYE" name="KAMIYAKU"><Dme lat="30.3900862857699" lon="130.651222318411" alt="42.367M" range="361237.0M" /></Vor><Vor dme="TRUE" dmeOnly="FALSE" lat="30.5388278514147" lon="130.954283326864" alt="110.032M" type="HIGH" frequency="116.200" range="361237.0M" magvar="6.98" region="RJ" ident="TJE" name="TANEGASHIMA"><Dme lat="30.5388278514147" lon="130.954283326864" alt="110.032M" range="361237.0M" /></Vor><Vor dme="TRUE" dmeOnly="FALSE" lat="28.443669565022" lon="129.584066569805" alt="303.58M" type="HIGH" frequency="115.500" range="361237.0M" magvar="6.36" region="RO" ident="ALC" name="AMAMI"><Dme lat="28.443669565022" lon="129.584066569805" alt="303.58M" range="361237.0M" /></Vor><Vor dme="TRUE" dmeOnly="FALSE" lat="28.4347166866064" lon="129.711408466101" alt="14.325M" type="HIGH" frequency="113.950" range="361237.0M" magvar="6.36" region="RO" ident="AME" name="KASARI (AMAMI)"><Dme lat="28.4347166866064" lon="129.711408466101" alt="14.325M" range="361237.0M" /></Vor><Vor dme="TRUE" dmeOnly="FALSE" lat="26.3718692958355" lon="126.722063720226" alt="16.459M" type="HIGH" frequency="116.700" range="361237.0M" magvar="5.72" region="RO" ident="KXC" name="KUMEJIMA"><Dme lat="26.3718692958355" lon="126.722063720226" alt="16.459M" range="361237.0M" /></Vor><Vor dme="TRUE" dmeOnly="FALSE" lat="24.6399997919798" lon="120.783333331347" alt="20.726M" type="HIGH" frequency="114.900" range="361237.0M" magvar="4.77" region="RC" ident="HLG" name="HOULUNG"><Dme lat="24.6399997919798" lon="120.783333331347" alt="20.726M" range="361237.0M" /></Vor><Vor dme="TRUE" dmeOnly="TRUE" lat="24.8216664791107" lon="120.9375" alt="7.62M" type="HIGH" frequency="116.300" range="361237.0M" magvar="4.83" region="RC" ident="HSU" name="HSINCHU"><Dme lat="24.8216664791107" lon="120.9375" alt="7.62M" range="361237.0M" /></Vor><Vor dme="TRUE" dmeOnly="TRUE" lat="25.0625000149012" lon="121.244666576385" alt="44.805M" type="HIGH" frequency="115.800" range="361237.0M" magvar="4.92" region="RC" ident="TYN" name="TAOYUAN"><Dme lat="25.0625000149012" lon="121.244666576385" alt="44.805M" range="361237.0M" /></Vor><Vor dme="TRUE" dmeOnly="TRUE" lat="25.0653330981731" lon="121.632166653872" alt="5.486M" type="HIGH" frequency="108.300" range="361237.0M" magvar="4.97" region="RC" ident="HC" name="SUNGSHAN"><Dme lat="25.0653330981731" lon="121.632166653872" alt="5.486M" range="361237.0M" /></Vor><Vor dme="TRUE" dmeOnly="FALSE" lat="25.1769445091486" lon="121.522222012281" alt="1086.307M" type="HIGH" frequency="112.500" range="361237.0M" magvar="4.98" region="RC" ident="APU" name="ANPU (TAIPEI)"><Dme lat="25.1769445091486" lon="121.522222012281" alt="1086.307M" range="361237.0M" /></Vor><Vor dme="TRUE" dmeOnly="TRUE" lat="25.0761108845472" lon="121.427222192287" alt="109.423M" type="HIGH" frequency="114.500" range="361237.0M" magvar="4.95" region="RC" ident="LKU" name="TAIPEI"><Dme lat="25.0761108845472" lon="121.427222192287" alt="109.423M" range="361237.0M" /></Vor><Vor dme="TRUE" dmeOnly="FALSE" lat="25.088391713798" lon="121.233011037111" alt="24.384M" type="HIGH" frequency="114.300" range="361237.0M" magvar="4.93" region="RC" ident="TIA" name="TAIPEI"><Dme lat="25.088391713798" lon="121.233011037111" alt="24.384M" range="361237.0M" /></Vor><Vor dme="TRUE" dmeOnly="TRUE" lat="24.2535554990172" lon="120.618833452463" alt="202.082M" type="TERMINAL" frequency="108.400" range="69469.0M" magvar="4.66" region="RC" ident="TCK" name="TAICHUNG"><Dme lat="24.2535554990172" lon="120.618833452463" alt="202.082M" range="69469.0M" /></Vor><Vor dme="TRUE" dmeOnly="TRUE" lat="24.2699997872114" lon="120.60833349824" alt="202.692M" type="HIGH" frequency="111.300" range="361237.0M" magvar="4.66" region="RC" ident="CCK" name="CHING CHUAN KANG"><Dme lat="24.2699997872114" lon="120.60833349824" alt="202.692M" range="361237.0M" /></Vor><Vor dme="TRUE" dmeOnly="FALSE" lat="24.0185111761093" lon="121.640346944332" alt="39.928M" type="HIGH" frequency="114.100" range="361237.0M" magvar="4.72" region="RC" ident="HLN" name="HUALIEN"><Dme lat="24.0185111761093" lon="121.640346944332" alt="39.928M" range="361237.0M" /></Vor><Vor dme="TRUE" dmeOnly="FALSE" lat="24.4649222865701" lon="122.997738718987" alt="92.659M" type="HIGH" frequency="115.300" range="361237.0M" magvar="4.97" region="RO" ident="YNE" name="YONAGUNI"><Dme lat="24.4649222865701" lon="122.997738718987" alt="92.659M" range="361237.0M" /></Vor><Vor dme="TRUE" dmeOnly="TRUE" lat="23.4626250341535" lon="120.385402590036" alt="24.993M" type="HIGH" frequency="111.800" range="361237.0M" magvar="4.45" region="RC" ident="CHI" name="CHIAYI"><Dme lat="23.4626250341535" lon="120.385402590036" alt="24.993M" range="361237.0M" /></Vor><Vor dme="TRUE" dmeOnly="TRUE" lat="23.1354166567326" lon="120.206222087145" alt="28.346M" type="TERMINAL" frequency="109.800" range="69469.0M" magvar="4.35" region="RC" ident="NNN" name="SHIKANG (TAINAN)"><Dme lat="23.1354166567326" lon="120.206222087145" alt="28.346M" range="69469.0M" /></Vor><Vor dme="TRUE" dmeOnly="TRUE" lat="22.6707276329398" lon="120.460319370031" alt="31.394M" type="HIGH" frequency="109.600" range="361237.0M" magvar="4.28" region="RC" ident="PIT" name="PINGTUNG"><Dme lat="22.6707276329398" lon="120.460319370031" alt="31.394M" range="361237.0M" /></Vor><Vor dme="TRUE" dmeOnly="TRUE" lat="22.9499999061227" lon="120.204999893904" alt="16.154M" type="HIGH" frequency="115.400" range="361237.0M" magvar="4.31" region="RC" ident="TWS" name="TAINAN"><Dme lat="22.9499999061227" lon="120.204999893904" alt="16.154M" range="361237.0M" /></Vor><Vor dme="TRUE" dmeOnly="FALSE" lat="22.6727778464556" lon="121.485833376646" alt="185.623M" type="HIGH" frequency="116.900" range="361237.0M" magvar="4.4" region="RC" ident="GID" name="LYUDAO (TAITUNG)"><Dme lat="22.6727778464556" lon="121.485833376646" alt="185.623M" range="361237.0M" /></Vor><Vor dme="TRUE" dmeOnly="TRUE" lat="22.8036109730601" lon="121.18555560708" alt="36.88M" type="HIGH" frequency="113.800" range="361237.0M" magvar="4.39" region="RC" ident="TTG" name="TAITUNG"><Dme lat="22.8036109730601" lon="121.18555560708" alt="36.88M" range="361237.0M" /></Vor><Vor dme="TRUE" dmeOnly="FALSE" lat="24.6506555378437" lon="124.673822075129" alt="17.983M" type="HIGH" frequency="110.650" range="361237.0M" magvar="5.15" region="RO" ident="RME" name="TARAMA"><Dme lat="24.6506555378437" lon="124.673822075129" alt="17.983M" range="361237.0M" /></Vor><Vor dme="TRUE" dmeOnly="FALSE" lat="24.8219333589077" lon="125.143805444241" alt="20.116M" type="HIGH" frequency="117.100" range="361237.0M" magvar="5.23" region="RO" ident="SJE" name="SHIMOJISHIMA"><Dme lat="24.8219333589077" lon="125.143805444241" alt="20.116M" range="361237.0M" /></Vor><Vor dme="TRUE" dmeOnly="FALSE" lat="24.7859776765108" lon="125.30123591423" alt="59.436M" type="HIGH" frequency="117.500" range="361237.0M" magvar="5.23" region="RO" ident="MYC" name="MIYAKOJIMA"><Dme lat="24.7859776765108" lon="125.30123591423" alt="59.436M" range="361237.0M" /></Vor><Vor dme="TRUE" dmeOnly="FALSE" lat="24.3410303816199" lon="124.185727983713" alt="34.747M" type="HIGH" frequency="117.700" range="361237.0M" magvar="5.04" region="RO" ident="GKE" name="ISHIGAKI"><Dme lat="24.3410303816199" lon="124.185727983713" alt="34.747M" range="361237.0M" /></Vor><Vor dme="TRUE" dmeOnly="FALSE" lat="27.4328834563494" lon="128.698963969946" alt="66.446M" type="HIGH" frequency="113.100" range="361237.0M" magvar="6.07" region="RO" ident="ONC" name="ERABU (OKIERABU I)"><Dme lat="27.4328834563494" lon="128.698963969946" alt="66.446M" range="361237.0M" /></Vor><Vor dme="TRUE" dmeOnly="FALSE" lat="27.8247776627541" lon="128.882216513157" alt="14.63M" type="HIGH" frequency="110.450" range="361237.0M" magvar="6.18" region="RJ" ident="TKE" name="TOKUNOSHIMA"><Dme lat="27.8247776627541" lon="128.882216513157" alt="14.63M" range="361237.0M" /></Vor><Vor dme="TRUE" dmeOnly="FALSE" lat="27.0443748682737" lon="128.398025035858" alt="19.202M" type="HIGH" frequency="112.250" range="361237.0M" magvar="5.95" region="RO" ident="YRE" name="YORON"><Dme lat="27.0443748682737" lon="128.398025035858" alt="19.202M" range="361237.0M" /></Vor><Vor dme="TRUE" dmeOnly="FALSE" lat="26.2085304781795" lon="127.642866522074" alt="17.373M" type="HIGH" frequency="116.500" range="361237.0M" magvar="5.71" region="RO" ident="NHC" name="NAHA"><Dme lat="26.2085304781795" lon="127.642866522074" alt="17.373M" range="361237.0M" /></Vor><Vor dme="TRUE" dmeOnly="FALSE" lat="26.3567972928286" lon="127.768319696188" alt="44.5M" type="HIGH" frequency="112.000" range="361237.0M" magvar="5.75" region="RO" ident="KAD" name="KADENA (OKINAWA)"><Dme lat="26.3567972928286" lon="127.768319696188" alt="44.5M" range="361237.0M" /></Vor><Vor dme="TRUE" dmeOnly="TRUE" lat="26.2670861184597" lon="127.744158357382" alt="74.98M" type="HIGH" frequency="110.500" range="361237.0M" magvar="5.72" region="RO" ident="NFO" name="FUTENMA (OKINAWA I.)"><Dme lat="26.2670861184597" lon="127.744158357382" alt="74.98M" range="361237.0M" /></Vor><Vor dme="TRUE" dmeOnly="FALSE" lat="26.1608666181564" lon="127.800824940205" alt="165.506M" type="HIGH" frequency="114.200" range="361237.0M" magvar="5.7" region="RO" ident="TIC" name="CHINEN"><Dme lat="26.1608666181564" lon="127.800824940205" alt="165.506M" range="361237.0M" /></Vor><Vor dme="TRUE" dmeOnly="FALSE" lat="25.8544832468033" lon="131.263788789511" alt="9.144M" type="HIGH" frequency="117.800" range="361237.0M" magvar="5.57" region="RO" ident="MDE" name="MINAMIDAITO"><Dme lat="25.8544832468033" lon="131.263788789511" alt="9.144M" range="361237.0M" /></Vor><Vor dme="TRUE" dmeOnly="FALSE" lat="33.6612638086081" lon="135.359413772821" alt="103.022M" type="HIGH" frequency="109.050" range="361237.0M" magvar="7.72" region="RJ" ident="NKE" name="NANKI"><Dme lat="33.6612638086081" lon="135.359413772821" alt="103.022M" range="361237.0M" /></Vor><Vor dme="TRUE" dmeOnly="FALSE" lat="33.4477418661118" lon="135.794494450092" alt="45.72M" type="HIGH" frequency="112.900" range="361237.0M" magvar="7.61" region="RJ" ident="KEC" name="KUSHIMOTO"><Dme lat="33.4477418661118" lon="135.794494450092" alt="45.72M" range="361237.0M" /></Vor><Vor dme="TRUE" dmeOnly="FALSE" lat="33.1143499910831" lon="139.788483381271" alt="103.327M" type="HIGH" frequency="116.650" range="361237.0M" magvar="6.97" region="RJ" ident="HCE" name="HACHIJO JIMA"><Dme lat="33.1143499910831" lon="139.788483381271" alt="103.327M" range="361237.0M" /></Vor><Vor dme="TRUE" dmeOnly="TRUE" lat="24.7841665148735" lon="141.316666603088" alt="112.776M" type="HIGH" frequency="109.800" range="361237.0M" magvar="3.9" region="RJ" ident="IJT" name="IWO JIMA"><Dme lat="24.7841665148735" lon="141.316666603088" alt="112.776M" range="361237.0M" /></Vor><Ndb lat="43.8666667789221" lon="125.266666710377" alt="242.011M" type="H" frequency="0398.00" range="138937.0M" magvar="10.56" region="ZY" ident="TY" name="CHANGCHUN" /><Ndb lat="43.9400000497699" lon="125.264999717474" alt="200.863M" type="COMPASS_POINT" frequency="0318.00" range="41681.0M" magvar="10.58" region="ZY" ident="QF" name="CHANGCHUN" /><Ndb lat="43.8533335179091" lon="125.098333507776" alt="192.024M" type="COMPASS_POINT" frequency="0318.00" range="41681.0M" magvar="10.53" region="ZY" ident="AW" name="CHANGCHUN" /><Ndb lat="42.5666667893529" lon="124.016666561365" alt="84.124M" type="H" frequency="0512.00" range="138937.0M" magvar="9.98" region="ZY" ident="FB" name="KAIYUAN" /><Ndb lat="41.5833334252238" lon="120.433333218098" alt="172.516M" type="H" frequency="0226.00" range="138937.0M" magvar="8.98" region="ZY" ident="FJ" name="CHAOYANG" /><Ndb lat="41.6383334621787" lon="122.115000039339" alt="13.411M" type="H" frequency="0276.00" range="138937.0M" magvar="9.36" region="ZY" ident="KM" name="DAHUSHAN" /><Ndb lat="41.6536193713546" lon="123.507219403982" alt="59.74M" type="COMPASS_POINT" frequency="0321.00" range="41681.0M" magvar="9.63" region="ZY" ident="K" name="SHENYANG" /><Ndb lat="41.5066668391228" lon="123.293333351612" alt="28.956M" type="H" frequency="0296.00" range="138937.0M" magvar="9.55" region="ZY" ident="PU" name="DONGYANGJIAO" /><Ndb lat="41.6224863007665" lon="123.461125195026" alt="60.045M" type="COMPASS_POINT" frequency="0427.00" range="41681.0M" magvar="9.61" region="ZY" ident="P" name="SHENYANG" /><Ndb lat="41.70500010252" lon="123.746666461229" alt="105.46M" type="H" frequency="0365.00" range="138937.0M" magvar="9.69" region="ZY" ident="KY" name="WANGBINGOU" /><Ndb lat="39.6399999037385" lon="121.72166660428" alt="13.106M" type="H" frequency="0552.00" range="138937.0M" magvar="8.73" region="ZY" ident="BM" name="WAFANGDIAN" /><Ndb lat="40.205000191927" lon="124.555000215769" alt="76.2M" type="HH" frequency="0350.00" range="208406.0M" magvar="9.39" region="ZK" ident="CR" name="UIJU" /><Ndb lat="39.5966668054461" lon="126.345000118017" alt="228.6M" type="HH" frequency="0211.00" range="208406.0M" magvar="9.44" region="ZK" ident="GG" name="BUCHA" /><Ndb lat="39.6066667512059" lon="125.673333406448" alt="76.2M" type="HH" frequency="0275.00" range="208406.0M" magvar="9.37" region="ZK" ident="KP" name="ANJU" /><Ndb lat="44.5415306836367" lon="129.579074978828" alt="269.138M" type="COMPASS_POINT" frequency="0251.00" range="41681.0M" magvar="11.19" region="ZY" ident="O" name="MUDANJIANG" /><Ndb lat="43.3666668087244" lon="128.201666772366" alt="531.571M" type="HH" frequency="0367.00" range="208406.0M" magvar="10.74" region="ZY" ident="NG" name="DUNHUA" /><Ndb lat="42.87000015378" lon="129.338333308697" alt="217.017M" type="HH" frequency="0332.00" range="208406.0M" magvar="10.67" region="ZY" ident="JA" name="DEXIN" /><Ndb lat="42.8783334419131" lon="129.41833332181" alt="189.89M" type="COMPASS_POINT" frequency="0437.00" range="41681.0M" magvar="10.68" region="ZY" ident="J" name="YANJI" /><Ndb lat="44.1999999806285" lon="133.116666376591" alt="143.56M" type="H" frequency="0605.00" range="138937.0M" magvar="11.12" region="UH" ident="BL" name="CHERNYSHEVKA" /><Ndb lat="43.8833333551884" lon="133.249999880791" alt="283.464M" type="H" frequency="0920.00" range="138937.0M" magvar="11.02" region="UH" ident="BG" name="MURAVEYKA" /><Ndb lat="43.3666668087244" lon="132.068333476782" alt="10.058M" type="HH" frequency="0400.00" range="208406.0M" magvar="10.89" region="UH" ident="QD" name="VLADIVOSTOK (KNEVICHI)" /><Ndb lat="43.4699999168515" lon="132.323333323002" alt="57.912M" type="HH" frequency="0400.00" range="208406.0M" magvar="10.92" region="UH" ident="KW" name="VLADIVOSTOK (KNEVICHI)" /><Ndb lat="38.8733333721757" lon="121.636666506529" alt="77.114M" type="H" frequency="0414.00" range="138937.0M" magvar="8.5" region="ZY" ident="FC" name="FUJIAZHUANG" /><Ndb lat="38.9648278802633" lon="121.470950245857" alt="32.004M" type="COMPASS_POINT" frequency="0391.00" range="41681.0M" magvar="8.49" region="ZY" ident="ZF" name="DALIAN" /><Ndb lat="39.2500000074506" lon="121.616666615009" alt="19.507M" type="H" frequency="0230.00" range="138937.0M" magvar="8.6" region="ZY" ident="UL" name="HULUTAOTUN" /><Ndb lat="38.9546777307987" lon="121.594605445862" alt="32.004M" type="H" frequency="0530.00" range="138937.0M" magvar="8.51" region="ZY" ident="KD" name="DALIAN" /><Ndb lat="38.9624444022775" lon="121.500130444765" alt="32.004M" type="H" frequency="0440.00" range="138937.0M" magvar="8.5" region="ZY" ident="Z" name="DALIAN" /><Ndb lat="37.4461778998375" lon="121.415283232927" alt="18.897M" type="HH" frequency="0275.00" range="208406.0M" magvar="8.07" region="ZS" ident="JN" name="YANTAI" /><Ndb lat="37.4516667053103" lon="121.178333312273" alt="43.586M" type="H" frequency="0247.00" range="138937.0M" magvar="8.02" region="ZS" ident="FZ" name="TUNLI" /><Ndb lat="39.322222173214" lon="125.676944553852" alt="31.089M" type="HH" frequency="0320.00" range="208406.0M" magvar="9.29" region="ZK" ident="WK" name="Pyeongyang" /><Ndb lat="36.9616666808724" lon="127.030000090599" alt="15.544M" type="H" frequency="0381.00" range="138937.0M" magvar="8.74" region="RK" ident="RE" name="Pyeongtaek" /><Ndb lat="36.1149999126792" lon="120.423333495855" alt="31.394M" type="H" frequency="0338.00" range="138937.0M" magvar="7.52" region="ZS" ident="PA" name="QINGDAO" /><Ndb lat="34.7575557231903" lon="126.381610929966" alt="7.01M" type="H" frequency="0267.00" range="138937.0M" magvar="8.04" region="RK" ident="MP" name="MOKPO" /><Ndb lat="35.1249999180436" lon="126.811666935682" alt="14.63M" type="H" frequency="0325.00" range="138937.0M" magvar="8.19" region="RK" ident="KC" name="GWANGJU" /><Ndb lat="38.13611112535" lon="128.597777634859" alt="29.87M" type="H" frequency="0378.00" range="138937.0M" magvar="9.21" region="RK" ident="SK" name="SOKCHO" /><Ndb lat="37.8866666927934" lon="127.724999785423" alt="74.676M" type="H" frequency="0360.00" range="138937.0M" magvar="9.07" region="RK" ident="CJ" name="CHUNCHEON" /><Ndb lat="37.7500000968575" lon="128.949999958277" alt="10.668M" type="H" frequency="0257.00" range="138937.0M" magvar="9.11" region="RK" ident="LC" name="GANGNEUNG" /><Ndb lat="36.6302777454257" lon="128.37361112237" alt="107.899M" type="H" frequency="0367.00" range="138937.0M" magvar="8.74" region="RK" ident="YC" name="YECHEON" /><Ndb lat="35.5760140344501" lon="129.353202581406" alt="13.716M" type="H" frequency="0335.00" range="138937.0M" magvar="8.48" region="RK" ident="US" name="ULSAN" /><Ndb lat="35.9783333167434" lon="129.41833332181" alt="24.688M" type="H" frequency="0330.00" range="138937.0M" magvar="8.6" region="RK" ident="UT" name="POHANG" /><Ndb lat="34.8446946591139" lon="127.611194550991" alt="15.849M" type="H" frequency="0396.50" range="138937.0M" magvar="8.17" region="RK" ident="YS" name="YEOSU" /><Ndb lat="34.2875612899661" lon="129.323733150959" alt="59.436M" type="H" frequency="0393.00" range="138937.0M" magvar="8.09" region="RJ" ident="VC" name="TSUSHIMA" /><Ndb lat="33.7522751837969" lon="129.782122224569" alt="12.496M" type="H" frequency="0355.00" range="138937.0M" magvar="7.94" region="RJ" ident="IK" name="IKISHIMA" /><Ndb lat="34.047500230372" lon="131.059999912977" alt="82.296M" type="H" frequency="0253.00" range="138937.0M" magvar="8.04" region="RJ" ident="OC" name="OZUKI (SHIMONOSEKI)" /><Ndb lat="33.9338610693812" lon="132.547130584717" alt="13.106M" type="MH" frequency="0382.00" range="69469.0M" magvar="7.98" region="RJ" ident="MF" name="FUTAGAMI (MATSUYAMA)" /><Ndb lat="34.1280556842685" lon="134.606111347675" alt="1.524M" type="H" frequency="0332.50" range="138937.0M" magvar="7.93" region="RJ" ident="TS" name="TOKUSHIMA" /><Ndb lat="33.9769443869591" lon="134.648889005184" alt="1.828M" type="H" frequency="0352.00" range="138937.0M" magvar="7.88" region="RJ" ident="KJ" name="KOMATSUJIMA" /><Ndb lat="43.1687556579709" lon="141.320669353008" alt="7.924M" type="H" frequency="0357.00" range="138937.0M" magvar="9.9" region="RJ" ident="SP" name="SAPPORO" /><Ndb lat="43.0001835152507" lon="141.650697290897" alt="6.096M" type="H" frequency="0376.50" range="138937.0M" magvar="9.79" region="RJ" ident="NA" name="NAGANUMA" /><Ndb lat="42.6687499880791" lon="141.679566800594" alt="4.572M" type="H" frequency="0347.00" range="138937.0M" magvar="9.68" region="RJ" ident="CH" name="CHITOSE" /><Ndb lat="41.7753638327122" lon="140.819447189569" alt="31.089M" type="H" frequency="0388.00" range="138937.0M" magvar="9.57" region="RJ" ident="HW" name="HAKODATE" /><Ndb lat="41.2416666001081" lon="141.145277917385" alt="7.315M" type="H" frequency="0353.00" range="138937.0M" magvar="9.35" region="RJ" ident="OM" name="OMINATO" /><Ndb lat="40.5502779409289" lon="141.478333175182" alt="42.672M" type="H" frequency="0381.00" range="138937.0M" magvar="9.07" region="RJ" ident="JC" name="HACHINOHE" /><Ndb lat="39.8557363450527" lon="141.945833265781" alt="173.126M" type="H" frequency="0209.00" range="138937.0M" magvar="8.76" region="RJ" ident="MQ" name="MIYAKO" /><Ndb lat="42.8997223824263" lon="143.158333450556" alt="126.796M" type="H" frequency="0239.00" range="138937.0M" magvar="9.45" region="RJ" ident="OH" name="TOKACHI" /><Ndb lat="43.0360362678766" lon="144.200577735901" alt="93.573M" type="H" frequency="0194.00" range="138937.0M" magvar="9.26" region="RJ" ident="KS" name="KUSHIRO" /><Ndb lat="42.656069509685" lon="143.257113844156" alt="151.18M" type="MH" frequency="0325.50" range="69469.0M" magvar="9.35" region="RJ" ident="OB" name="OBIHIRO" /><Ndb lat="38.0658000335097" lon="138.409858345985" alt="22.86M" type="H" frequency="0369.50" range="138937.0M" magvar="8.79" region="RJ" ident="NI" name="SADO" /><Ndb lat="38.1359917670488" lon="140.909394621849" alt="1.828M" type="H" frequency="0248.00" range="138937.0M" magvar="8.41" region="RJ" ident="SD" name="SENDAI" /><Ndb lat="37.9508807882667" lon="139.109546989202" alt="0.914M" type="H" frequency="0253.00" range="138937.0M" magvar="8.65" region="RJ" ident="GT" name="NIIGATA" /><Ndb lat="36.7639640718699" lon="140.359369218349" alt="102.412M" type="H" frequency="0221.00" range="138937.0M" magvar="8.07" region="RJ" ident="GO" name="DAIGO" /><Ndb lat="36.1753693968058" lon="136.220280379057" alt="6.4M" type="H" frequency="0400.00" range="138937.0M" magvar="8.44" region="RJ" ident="FQ" name="FUKUI" /><Ndb lat="36.2906027957797" lon="137.908110916615" alt="561.746M" type="H" frequency="0387.00" range="138937.0M" magvar="8.28" region="RJ" ident="MH" name="HOTAKA (MATSUMOTO)" /><Ndb lat="35.2593973651528" lon="136.916358321905" alt="14.02M" type="H" frequency="0360.00" range="138937.0M" magvar="8.07" region="RJ" ident="KC" name="NAGOYA" /><Ndb lat="34.8054834455252" lon="135.40366128087" alt="34.442M" type="H" frequency="0211.00" range="138937.0M" magvar="8.08" region="RJ" ident="OW" name="ITAMI (OSAKA)" /><Ndb lat="34.6865472570062" lon="135.551013797522" alt="0.914M" type="H" frequency="0340.00" range="138937.0M" magvar="8.03" region="RJ" ident="RK" name="OSAKA" /><Ndb lat="34.4950556382537" lon="135.345180630684" alt="1.828M" type="H" frequency="0346.00" range="138937.0M" magvar="7.99" region="RJ" ident="KN" name="KANSAI" /><Ndb lat="35.0503332540393" lon="135.871455520391" alt="89.916M" type="H" frequency="0368.00" range="138937.0M" magvar="8.12" region="RJ" ident="CU" name="OTSU" /><Ndb lat="34.4913112744689" lon="135.443627536297" alt="52.425M" type="H" frequency="0219.00" range="138937.0M" magvar="7.98" region="RJ" ident="SK" name="SHINODA" /><Ndb lat="34.5277779176831" lon="136.696666628122" alt="0.0M" type="H" frequency="0380.00" range="138937.0M" magvar="7.86" region="RJ" ident="AK" name="AKENO" /><Ndb lat="34.7520585358143" lon="136.926411241293" alt="18.592M" type="H" frequency="0325.00" range="138937.0M" magvar="7.91" region="RJ" ident="XM" name="KOWA" /><Ndb lat="34.8222556337714" lon="138.289330601692" alt="7.01M" type="H" frequency="0344.00" range="138937.0M" magvar="7.76" region="RJ" ident="YZ" name="YAIZU" /><Ndb lat="36.1639388278127" lon="139.311027824879" alt="56.083M" type="H" frequency="0283.00" range="138937.0M" magvar="8.04" region="RJ" ident="AY" name="KUMAGAYA" /><Ndb lat="35.9183862805367" lon="139.614136219025" alt="15.544M" type="H" frequency="0228.00" range="138937.0M" magvar="7.92" region="RJ" ident="MI" name="OMIYA" /><Ndb lat="36.4897222816944" lon="139.863333553076" alt="89.916M" type="H" frequency="0389.00" range="138937.0M" magvar="8.06" region="RJ" ident="JD" name="NIKKO (UTSUNOMIYA)" /><Ndb lat="35.5596750229597" lon="139.541177898645" alt="63.398M" type="H" frequency="0357.00" range="138937.0M" magvar="7.81" region="RJ" ident="RB" name="EDA" /><Ndb lat="35.579766780138" lon="139.376258254051" alt="125.882M" type="H" frequency="0401.00" range="138937.0M" magvar="7.84" region="RJ" ident="DF" name="ZAMA" /><Ndb lat="35.5032527446747" lon="139.396799951792" alt="80.467M" type="H" frequency="0379.00" range="138937.0M" magvar="7.82" region="RJ" ident="XR" name="KASTNER (ZAMA)" /><Ndb lat="35.1990778371692" lon="139.61465254426" alt="27.127M" type="H" frequency="0249.00" range="138937.0M" magvar="7.68" region="RJ" ident="YU" name="YOKOSUKA" /><Ndb lat="35.7183333858848" lon="139.399722218513" alt="95.402M" type="H" frequency="0366.00" range="138937.0M" magvar="7.88" region="RJ" ident="TN" name="SHIN-TACHIKAWA" /><Ndb lat="35.3957638889551" lon="139.904697239399" alt="3.048M" type="MH" frequency="0200.00" range="69469.0M" magvar="7.7" region="RJ" ident="CL" name="KISARAZU" /><Ndb lat="35.5588167160749" lon="139.754539132118" alt="3.048M" type="H" frequency="0337.00" range="138937.0M" magvar="7.78" region="RJ" ident="HM" name="HANEDA (TOKYO)" /><Ndb lat="34.6888224408031" lon="139.396563917398" alt="36.271M" type="H" frequency="0214.00" range="138937.0M" magvar="7.55" region="RJ" ident="XA" name="OSHIMA" /><Ndb lat="34.9939334392548" lon="139.875099956989" alt="8.839M" type="H" frequency="0373.00" range="138937.0M" magvar="7.57" region="RJ" ident="PQ" name="TATEYAMA" /><Ndb lat="31.2866666167974" lon="121.330000162125" alt="24.384M" type="COMPASS_POINT" frequency="0369.00" range="41681.0M" magvar="6.45" region="ZS" ident="PK" name="NANXIANG" /><Ndb lat="31.2233332917094" lon="121.33333325386" alt="3.048M" type="MH" frequency="0313.00" range="69469.0M" magvar="6.43" region="ZS" ident="C" name="HONGQIAO" /><Ndb lat="30.3016665950418" lon="120.163333117962" alt="0.304M" type="H" frequency="0324.00" range="138937.0M" magvar="6.01" region="ZS" ident="CD" name="JIANQIAO" /><Ndb lat="30.8833331242204" lon="120.416666865349" alt="8.534M" type="H" frequency="0391.00" range="138937.0M" magvar="6.19" region="ZS" ident="SX" name="NANXUN" /><Ndb lat="29.598333388567" lon="120.81166639924" alt="0.304M" type="HH" frequency="0335.00" range="208406.0M" magvar="5.94" region="ZS" ident="JF" name="SHENGZHOU" /><Ndb lat="30.120000243187" lon="120.2000002563" alt="0.304M" type="HH" frequency="0572.00" range="208406.0M" magvar="5.97" region="ZS" ident="WY" name="WENYAN (HANGZHOU)" /><Ndb lat="29.8949997872114" lon="121.331666707993" alt="399.897M" type="H" frequency="0227.00" range="138937.0M" magvar="6.1" region="ZS" ident="BK" name="LISHE" /><Ndb lat="29.7786110267043" lon="121.539166867733" alt="3.962M" type="COMPASS_POINT" frequency="0380.00" range="41681.0M" magvar="6.1" region="ZS" ident="LM" name="NINGBO" /><Ndb lat="32.6707722991705" lon="128.831438720226" alt="77.419M" type="H" frequency="0263.00" range="138937.0M" magvar="7.59" region="RJ" ident="FU" name="FUKUE" /><Ndb lat="33.0120056122541" lon="129.190338850021" alt="78.638M" type="H" frequency="0367.00" range="138937.0M" magvar="7.7" region="RJ" ident="CA" name="KAMIGOTO" /><Ndb lat="32.9416666924953" lon="129.930000007153" alt="2.438M" type="H" frequency="0342.50" range="138937.0M" magvar="7.7" region="RJ" ident="JB" name="OMURA (NAGASAKI)" /><Ndb lat="32.805514074862" lon="130.768472403288" alt="38.1M" type="H" frequency="0249.00" range="138937.0M" magvar="7.66" region="RJ" ident="KU" name="KUMAMOTO" /><Ndb lat="31.8010278046131" lon="130.724416673183" alt="271.576M" type="H" frequency="0201.00" range="138937.0M" magvar="7.36" region="RJ" ident="KG" name="KAJIKI (KAGOSHIMA)" /><Ndb lat="31.6446640715003" lon="130.56577205658" alt="204.825M" type="H" frequency="0390.00" range="138937.0M" magvar="7.31" region="RJ" ident="HK" name="KAGOSHIMA" /><Ndb lat="31.3563889637589" lon="130.8486109972" alt="65.227M" type="H" frequency="0238.00" range="138937.0M" magvar="7.22" region="RJ" ident="JA" name="KANOYA" /><Ndb lat="33.5462610796094" lon="133.677771985531" alt="7.01M" type="H" frequency="0399.00" range="138937.0M" magvar="7.81" region="RJ" ident="KR" name="KOCHI" /><Ndb lat="30.5408193916082" lon="130.950802713633" alt="87.782M" type="H" frequency="0333.00" range="138937.0M" magvar="6.98" region="RJ" ident="TJ" name="TANEGASHIMA" /><Ndb lat="28.3178055658937" lon="129.923877865076" alt="3.962M" type="H" frequency="0382.00" range="138937.0M" magvar="6.33" region="RO" ident="KI" name="KIKAI" /><Ndb lat="27.7433333918452" lon="120.649999827147" alt="0.0M" type="H" frequency="0413.00" range="138937.0M" magvar="5.47" region="ZS" ident="KN" name="DONGSHAN" /><Ndb lat="26.5936554595828" lon="127.236158251762" alt="1.524M" type="H" frequency="0268.00" range="138937.0M" magvar="5.8" region="RJ" ident="AN" name="AGUNI" /><Ndb lat="26.3624359667301" lon="126.715758293867" alt="8.229M" type="H" frequency="0295.00" range="138937.0M" magvar="5.72" region="RO" ident="KX" name="KUMEJIMA" /><Ndb lat="24.6463888138533" lon="120.774166435003" alt="5.486M" type="H" frequency="0362.00" range="138937.0M" magvar="4.77" region="RC" ident="HL" name="HOULUNG" /><Ndb lat="25.0653887540102" lon="121.632027626038" alt="22.555M" type="COMPASS_POINT" frequency="0295.00" range="41681.0M" magvar="4.97" region="RC" ident="O" name="TAIPEI" /><Ndb lat="24.8616665974259" lon="121.253333240747" alt="214.579M" type="H" frequency="0202.00" range="138937.0M" magvar="4.87" region="RC" ident="RA" name="LUNGTANG" /><Ndb lat="24.9948332458735" lon="121.490527689457" alt="14.63M" type="COMPASS_POINT" frequency="0385.00" range="41681.0M" magvar="4.93" region="RC" ident="SW" name="TAIPEI" /><Ndb lat="24.7319442406297" lon="121.741388887167" alt="9.448M" type="H" frequency="0225.00" range="138937.0M" magvar="4.9" region="RC" ident="MS" name="ILAN" /><Ndb lat="25.1761110126972" lon="121.522777676582" alt="1081.43M" type="H" frequency="0250.00" range="138937.0M" magvar="4.98" region="RC" ident="AP" name="ANPU (TAIPEI)" /><Ndb lat="25.1394442096353" lon="121.80083334446" alt="17.983M" type="COMPASS_POINT" frequency="0357.00" range="41681.0M" magvar="5.01" region="RC" ident="LU" name="CHILUNG" /><Ndb lat="24.2333333194256" lon="120.82333356142" alt="395.02M" type="H" frequency="0340.00" range="138937.0M" magvar="4.68" region="RC" ident="WK" name="HSINSHIE" /><Ndb lat="24.0177497640252" lon="121.627250164747" alt="26.212M" type="HH" frequency="0380.00" range="208406.0M" magvar="4.72" region="RC" ident="YU" name="HUALIEN" /><Ndb lat="24.0060831606388" lon="121.607444286346" alt="14.63M" type="COMPASS_POINT" frequency="0280.00" range="41681.0M" magvar="4.72" region="RC" ident="HW" name="HUALIEN" /><Ndb lat="23.5841666534543" lon="120.389166623354" alt="17.373M" type="H" frequency="0525.00" range="138937.0M" magvar="4.48" region="RC" ident="KU" name="CHIAYI" /><Ndb lat="23.1247220188379" lon="120.202222466469" alt="8.534M" type="H" frequency="0375.00" range="138937.0M" magvar="4.35" region="RC" ident="NN" name="SHIKANG (TAINAN)" /><Ndb lat="22.8553082048893" lon="120.261866748333" alt="22.25M" type="MH" frequency="0265.00" range="69469.0M" magvar="4.3" region="RC" ident="AY" name="KANGSHAN" /><Ndb lat="22.671388797462" lon="120.427249968052" alt="50.596M" type="MH" frequency="0390.00" range="69469.0M" magvar="4.28" region="RC" ident="DC" name="PINGTUNG" /><Ndb lat="22.5767500698566" lon="120.296777933836" alt="7.01M" type="COMPASS_POINT" frequency="0220.00" range="41681.0M" magvar="4.24" region="RC" ident="CO" name="KAOHSIUNG" /><Ndb lat="22.9782499372959" lon="120.289750099182" alt="20.116M" type="H" frequency="0312.00" range="138937.0M" magvar="4.33" region="RC" ident="MR" name="KUEIJEN" /><Ndb lat="22.7599667385221" lon="121.159102767706" alt="15.544M" type="MH" frequency="0430.00" range="69469.0M" magvar="4.38" region="RC" ident="ZN" name="CHIHHONG" /><Ndb lat="22.6761111617088" lon="121.483055502176" alt="6.096M" type="H" frequency="0300.00" range="138937.0M" magvar="4.4" region="RC" ident="GI" name="LYUDAO (TAITUNG)" /><Ndb lat="24.7880832105875" lon="125.294547379017" alt="44.805M" type="H" frequency="0340.00" range="138937.0M" magvar="5.23" region="RO" ident="MY" name="MIYAKOJIMA" /><Ndb lat="24.8219333589077" lon="125.143805444241" alt="1.828M" type="H" frequency="0250.00" range="138937.0M" magvar="5.23" region="RO" ident="SJ" name="SHIMOJISHIMA" /><Ndb lat="24.3437249958515" lon="124.182286262512" alt="26.212M" type="H" frequency="0349.00" range="138937.0M" magvar="5.04" region="RO" ident="IG" name="ISHIGAKI" /><Ndb lat="24.0606972947717" lon="123.803427815437" alt="13.411M" type="H" frequency="0332.00" range="138937.0M" magvar="4.94" region="RO" ident="HR" name="HATERUMA" /><Ndb lat="27.4299497902393" lon="128.708074986935" alt="0.609M" type="H" frequency="0398.00" range="138937.0M" magvar="6.07" region="RO" ident="ON" name="ERABU (OKIERABU I)" /><Ndb lat="26.1017359793186" lon="127.665102928877" alt="7.315M" type="H" frequency="0308.00" range="138937.0M" magvar="5.68" region="RO" ident="OK" name="OKINAWA" /><Ndb lat="25.8405723050237" lon="131.245844364166" alt="3.657M" type="H" frequency="0405.00" range="138937.0M" magvar="5.57" region="RO" ident="MD" name="MINAMIDAITO" /><Ndb lat="33.113313652575" lon="139.7907333076" alt="89.916M" type="MH" frequency="0340.00" range="69469.0M" magvar="6.97" region="RJ" ident="HC" name="HACHIJOJIMA" /><Ndb lat="27.0891667529941" lon="142.219722121954" alt="1.828M" type="H" frequency="0257.00" range="138937.0M" magvar="4.48" region="RJ" ident="CI" name="CHICHIJIMA" /><Ndb lat="24.7722223028541" lon="141.307499706745" alt="0.914M" type="H" frequency="0360.00" range="138937.0M" magvar="3.9" region="RJ" ident="OX" name="IWO JIMA" /></FSData>