<FSData version="9.0"><Vor dme="TRUE" dmeOnly="FALSE" lat="-45.1591666415334" lon="-73.5225002467632" alt="88.087M" type="HIGH" frequency="114.900" range="361237.0M" magvar="-10.32" region="SC" ident="PAR" name="PUERTO  AGUIRRE"><Dme lat="-45.1591666415334" lon="-73.5225002467632" alt="88.087M" range="361237.0M" /></Vor><Vor dme="TRUE" dmeOnly="FALSE" lat="-45.9130554646254" lon="-71.7125000059605" alt="523.951M" type="HIGH" frequency="115.500" range="361237.0M" magvar="-9.29" region="SC" ident="BAL" name="BALMACEDA"><Dme lat="-45.9130554646254" lon="-71.7125000059605" alt="523.951M" range="361237.0M" /></Vor><Vor dme="TRUE" dmeOnly="FALSE" lat="-50.2783332020044" lon="-72.0455557107925" alt="223.113M" type="HIGH" frequency="114.700" range="361237.0M" magvar="-12.09" region="SA" ident="ECA" name="CALAFATE"><Dme lat="-50.2783332020044" lon="-72.0455557107925" alt="223.113M" range="361237.0M" /></Vor><Vor dme="FALSE" dmeOnly="FALSE" lat="-49.3108332529664" lon="-67.8127777576447" alt="25.603M" type="HIGH" frequency="117.700" range="361237.0M" magvar="-8.24" region="SA" ident="SJU" name="SAN JULIAN" /><Vor dme="TRUE" dmeOnly="FALSE" lat="-45.7733167335391" lon="-67.3716223239899" alt="57.912M" type="HIGH" frequency="117.500" range="361237.0M" magvar="-5.6" region="SA" ident="CRV" name="COMODORO RIVADAVIA"><Dme lat="-45.7733167335391" lon="-67.3716223239899" alt="57.912M" range="361237.0M" /></Vor><Vor dme="TRUE" dmeOnly="FALSE" lat="-51.7350000143051" lon="-72.4480555951595" alt="128.93M" type="HIGH" frequency="115.900" range="361237.0M" magvar="-13.2" region="SC" ident="PNT" name="PUERTO NATALES"><Dme lat="-51.7350000143051" lon="-72.4480555951595" alt="128.93M" range="361237.0M" /></Vor><Vor dme="TRUE" dmeOnly="FALSE" lat="-51.6109166666865" lon="-69.3302223086357" alt="21.336M" type="HIGH" frequency="116.700" range="361237.0M" magvar="-10.81" region="SA" ident="GAL" name="RIO GALLEGOS"><Dme lat="-51.6109166666865" lon="-69.3302223086357" alt="21.336M" range="361237.0M" /></Vor><Vor dme="TRUE" dmeOnly="FALSE" lat="-53.0036111176014" lon="-70.8536110818386" alt="41.757M" type="HIGH" frequency="114.100" range="361237.0M" magvar="-12.75" region="SC" ident="NAS" name="PUNTA ARENAS"><Dme lat="-53.0036111176014" lon="-70.8536110818386" alt="41.757M" range="361237.0M" /></Vor><Vor dme="FALSE" dmeOnly="FALSE" lat="-53.7752501294017" lon="-67.7456943690777" alt="21.64M" type="HIGH" frequency="117.300" range="361237.0M" magvar="-10.95" region="SA" ident="GRA" name="RIO GRANDE" /><Vor dme="FALSE" dmeOnly="FALSE" lat="-54.8379443585873" lon="-68.2841943204403" alt="10.058M" type="HIGH" frequency="113.700" range="361237.0M" magvar="-11.98" region="SA" ident="USU" name="USHUAIA" /><Vor dme="TRUE" dmeOnly="FALSE" lat="-54.9291666224599" lon="-67.620000243187" alt="26.822M" type="HIGH" frequency="114.900" range="361237.0M" magvar="-11.56" region="SC" ident="PWL" name="PUERTO WILLIAMS"><Dme lat="-54.9291666224599" lon="-67.620000243187" alt="26.822M" range="361237.0M" /></Vor><Ndb lat="-45.1650001108646" lon="-73.5211113095284" alt="0.0M" type="H" frequency="0350.00" range="138937.0M" magvar="-10.32" region="SC" ident="PAR" name="PUERTO AGUIRRE" /><Ndb lat="-45.9194444864988" lon="-71.6983334720135" alt="586.435M" type="HH" frequency="0390.00" range="208406.0M" magvar="-9.29" region="SC" ident="BAL" name="BALMACEDA" /><Ndb lat="-45.0163889676332" lon="-70.8011113107204" alt="712.622M" type="H" frequency="0310.00" range="138937.0M" magvar="-8.0" region="SA" ident="ARS" name="ALTO RIO SENGUERR" /><Ndb lat="-45.7047222554684" lon="-70.2627776563168" alt="544.982M" type="H" frequency="0290.00" range="138937.0M" magvar="-7.97" region="SA" ident="RMY" name="RIO MAYO" /><Ndb lat="-46.5363887697458" lon="-70.9861113131046" alt="428.853M" type="H" frequency="0335.00" range="138937.0M" magvar="-9.07" region="SA" ident="PTM" name="PERITO MORENO" /><Ndb lat="-50.2847222238779" lon="-72.0500001311302" alt="223.113M" type="H" frequency="0385.00" range="138937.0M" magvar="-12.09" region="SA" ident="ECA" name="EL CALAFATE" /><Ndb lat="-48.7830556556582" lon="-70.1613888144493" alt="358.14M" type="H" frequency="0360.00" range="138937.0M" magvar="-9.76" region="SA" ident="GRE" name="GOBERNADOR GREGORES" /><Ndb lat="-50.0216665863991" lon="-68.5794442892075" alt="113.08M" type="H" frequency="0245.00" range="138937.0M" magvar="-9.28" region="SA" ident="SCZ" name="SANTA CRUZ" /><Ndb lat="-47.7333332598209" lon="-65.9094442427158" alt="78.943M" type="H" frequency="0210.00" range="138937.0M" magvar="-5.69" region="SA" ident="ADO" name="PUERTO DESEADO" /><Ndb lat="-51.6100000217557" lon="-72.2213888168335" alt="205.435M" type="H" frequency="0205.00" range="138937.0M" magvar="-12.97" region="SA" ident="BIO" name="EL TURBIO" /><Ndb lat="-51.6174723207951" lon="-69.2844446003437" alt="17.983M" type="H" frequency="0330.00" range="138937.0M" magvar="-10.78" region="SA" ident="GAL" name="RIO GALLEGOS" /><Ndb lat="-53.2466665282846" lon="-70.3522221744061" alt="0.914M" type="H" frequency="0340.00" range="138937.0M" magvar="-12.53" region="SC" ident="CFM" name="PORVENIR" /><Ndb lat="-53.0102777481079" lon="-70.8638888597488" alt="33.223M" type="HH" frequency="0270.00" range="208406.0M" magvar="-12.76" region="SC" ident="NAS" name="PUNTA ARENAS" /><Ndb lat="-52.7380556613207" lon="-69.3691666424274" alt="39.624M" type="COMPASS_POINT" frequency="0225.00" range="41681.0M" magvar="-11.51" region="SC" ident="SOM" name="CERRO SOMBRERO" /><Ndb lat="-53.7851387634873" lon="-67.7607223391533" alt="13.106M" type="H" frequency="0365.00" range="138937.0M" magvar="-10.97" region="SA" ident="GRA" name="RIO GRANDE" /></FSData>