<FSData version="9.0"><Vor dme="FALSE" dmeOnly="FALSE" lat="21.3807859271765" lon="0.952141731977463" alt="396.849M" type="HIGH" frequency="113.000" range="361237.0M" magvar="-0.25" region="DA" ident="MOK" name="BORDJ MOKHTAR" /><Vor dme="FALSE" dmeOnly="FALSE" lat="19.563611112535" lon="5.73388874530792" alt="399.897M" type="HIGH" frequency="113.400" range="361237.0M" magvar="-0.92" region="DA" ident="IGZ" name="IN GUEZZAM" /><Vor dme="FALSE" dmeOnly="FALSE" lat="16.9750832766294" lon="8.02327215671539" alt="505.053M" type="HIGH" frequency="113.500" range="361237.0M" magvar="-1.02" region="DR" ident="AS" name="AGADES" /><Vor dme="FALSE" dmeOnly="FALSE" lat="18.9814721792936" lon="12.8805001080036" alt="385.876M" type="HIGH" frequency="113.900" range="361237.0M" magvar="-2.03" region="DR" ident="DIR" name="DIRKOU" /><Vor dme="TRUE" dmeOnly="FALSE" lat="13.4833195433021" lon="2.20638066530228" alt="220.37M" type="HIGH" frequency="114.100" range="361237.0M" magvar="0.53" region="DR" ident="NY" name="NIAMEY"><Dme lat="13.4833195433021" lon="2.20638066530228" alt="220.37M" range="361237.0M" /></Vor><Vor dme="TRUE" dmeOnly="FALSE" lat="12.9266666248441" lon="5.24944424629211" alt="306.628M" type="HIGH" frequency="113.900" range="361237.0M" magvar="-0.0" region="DN" ident="SOK" name="SOKOTO"><Dme lat="12.9266666248441" lon="5.24944424629211" alt="306.628M" range="361237.0M" /></Vor><Vor dme="FALSE" dmeOnly="FALSE" lat="13.7705777585506" lon="8.97238880395889" alt="454.761M" type="HIGH" frequency="116.200" range="361237.0M" magvar="-0.82" region="DR" ident="ZR" name="ZINDER" /><Vor dme="TRUE" dmeOnly="FALSE" lat="12.0358500257134" lon="8.49606111645699" alt="484.327M" type="HIGH" frequency="112.500" range="361237.0M" magvar="-0.51" region="DN" ident="KAN" name="KANO"><Dme lat="12.0358500257134" lon="8.49606111645699" alt="484.327M" range="361237.0M" /></Vor><Vor dme="TRUE" dmeOnly="FALSE" lat="11.7049998790026" lon="11.0383334755898" alt="487.68M" type="HIGH" frequency="112.100" range="361237.0M" magvar="-0.96" region="DN" ident="PO" name="POTISKUM"><Dme lat="11.7049998790026" lon="11.0383334755898" alt="487.68M" range="361237.0M" /></Vor><Vor dme="TRUE" dmeOnly="FALSE" lat="11.8881639093161" lon="13.1166583299637" alt="324.612M" type="HIGH" frequency="113.700" range="361237.0M" magvar="-1.37" region="DN" ident="MIU" name="MAIDUGURI"><Dme lat="11.8881639093161" lon="13.1166583299637" alt="324.612M" range="361237.0M" /></Vor><Vor dme="TRUE" dmeOnly="FALSE" lat="12.1416943520308" lon="15.0383055210114" alt="301.142M" type="HIGH" frequency="115.300" range="361237.0M" magvar="-1.75" region="FT" ident="FL" name="N'DJAMENA"><Dme lat="12.1416943520308" lon="15.0383055210114" alt="301.142M" range="361237.0M" /></Vor><Vor dme="FALSE" dmeOnly="FALSE" lat="13.8451109826565" lon="20.8450001478195" alt="551.078M" type="HIGH" frequency="114.500" range="361237.0M" magvar="-2.83" region="FT" ident="AE" name="ABECHE" /><Vor dme="TRUE" dmeOnly="FALSE" lat="13.6104750260711" lon="25.329277664423" alt="732.739M" type="HIGH" frequency="115.000" range="361237.0M" magvar="-3.32" region="HS" ident="FSR" name="EL FASHIR"><Dme lat="13.6104750260711" lon="25.329277664423" alt="732.739M" range="361237.0M" /></Vor><Vor dme="TRUE" dmeOnly="FALSE" lat="12.0718137547374" lon="24.9725331366062" alt="640.08M" type="LOW" frequency="116.300" range="111150.0M" magvar="-3.18" region="HS" ident="NYL" name="NYALA"><Dme lat="12.0718137547374" lon="24.9725331366062" alt="640.08M" range="111150.0M" /></Vor><Vor dme="TRUE" dmeOnly="FALSE" lat="9.74733330309391" lon="1.08269423246384" alt="464.515M" type="HIGH" frequency="113.200" range="361237.0M" magvar="1.42" region="DX" ident="NT" name="NIAMTOUGOU"><Dme lat="9.74733330309391" lon="1.08269423246384" alt="464.515M" range="361237.0M" /></Vor><Vor dme="FALSE" dmeOnly="FALSE" lat="9.370122179389" lon="2.6191109418869" alt="398.983M" type="HIGH" frequency="112.800" range="361237.0M" magvar="1.13" region="DB" ident="PA" name="PARAKOU" /><Vor dme="TRUE" dmeOnly="FALSE" lat="9.47999987751246" lon="3.51138889789581" alt="457.2M" type="HIGH" frequency="114.300" range="361237.0M" magvar="0.91" region="DN" ident="GW" name="GWASERO"><Dme lat="9.47999987751246" lon="3.51138889789581" alt="457.2M" range="361237.0M" /></Vor><Vor dme="TRUE" dmeOnly="FALSE" lat="10.5916665494442" lon="7.45555579662323" alt="648.004M" type="HIGH" frequency="114.700" range="361237.0M" magvar="-0.11" region="DN" ident="KU" name="KADUNA (OLD)"><Dme lat="10.5916665494442" lon="7.45555579662323" alt="648.004M" range="361237.0M" /></Vor><Vor dme="TRUE" dmeOnly="FALSE" lat="10.6786639988422" lon="7.30110257863998" alt="620.572M" type="HIGH" frequency="115.300" range="361237.0M" magvar="-0.09" region="DN" ident="KDA" name="KADUNA"><Dme lat="10.6786639988422" lon="7.30110257863998" alt="620.572M" range="361237.0M" /></Vor><Vor dme="TRUE" dmeOnly="FALSE" lat="9.04999986290932" lon="6.09999999403954" alt="137.16M" type="HIGH" frequency="112.700" range="361237.0M" magvar="0.41" region="DN" ident="BDA" name="BIDA"><Dme lat="9.04999986290932" lon="6.09999999403954" alt="137.16M" range="361237.0M" /></Vor><Vor dme="TRUE" dmeOnly="FALSE" lat="9.03440818190575" lon="7.27996408939362" alt="352.044M" type="HIGH" frequency="116.300" range="361237.0M" magvar="0.16" region="DN" ident="ABC" name="ABUJA"><Dme lat="9.03440818190575" lon="7.27996408939362" alt="352.044M" range="361237.0M" /></Vor><Vor dme="TRUE" dmeOnly="FALSE" lat="8.01472216844559" lon="0.561389029026031" alt="0.304M" type="HIGH" frequency="115.900" range="361237.0M" magvar="1.89" region="DG" ident="PAM" name="PAMPA"><Dme lat="8.01472216844559" lon="0.561389029026031" alt="0.304M" range="361237.0M" /></Vor><Vor dme="TRUE" dmeOnly="FALSE" lat="6.1840833351016" lon="1.26877784729004" alt="28.041M" type="HIGH" frequency="115.300" range="361237.0M" magvar="2.1" region="DX" ident="LM" name="LOME"><Dme lat="6.1840833351016" lon="1.26877784729004" alt="28.041M" range="361237.0M" /></Vor><Vor dme="TRUE" dmeOnly="FALSE" lat="6.36213876307011" lon="2.39325016736984" alt="7.924M" type="HIGH" frequency="113.300" range="361237.0M" magvar="1.78" region="DB" ident="TYE" name="COTONOU"><Dme lat="6.36213876307011" lon="2.39325016736984" alt="7.924M" range="361237.0M" /></Vor><Vor dme="TRUE" dmeOnly="FALSE" lat="6.70833047479391" lon="3.33110019564629" alt="76.504M" type="HIGH" frequency="113.700" range="361237.0M" magvar="1.47" region="DN" ident="LAG" name="LAGOS"><Dme lat="6.70833047479391" lon="3.33110019564629" alt="76.504M" range="361237.0M" /></Vor><Vor dme="TRUE" dmeOnly="FALSE" lat="6.5427778288722" lon="3.31366941332817" alt="29.26M" type="HIGH" frequency="112.900" range="361237.0M" magvar="1.51" region="DN" ident="LOS" name="LAGOS"><Dme lat="6.5427778288722" lon="3.31366941332817" alt="29.26M" range="361237.0M" /></Vor><Vor dme="TRUE" dmeOnly="FALSE" lat="8.38555533438921" lon="4.43166688084602" alt="342.9M" type="HIGH" frequency="112.300" range="361237.0M" magvar="0.89" region="DN" ident="IL" name="ILORIN"><Dme lat="8.38555533438921" lon="4.43166688084602" alt="342.9M" range="361237.0M" /></Vor><Vor dme="TRUE" dmeOnly="FALSE" lat="7.34702780842781" lon="3.96649986505508" alt="227.99M" type="HIGH" frequency="112.100" range="361237.0M" magvar="1.19" region="DN" ident="IB" name="IBADAN (NEW)"><Dme lat="7.34702780842781" lon="3.96649986505508" alt="227.99M" range="361237.0M" /></Vor><Vor dme="TRUE" dmeOnly="FALSE" lat="6.29833336919546" lon="5.58333322405815" alt="78.638M" type="HIGH" frequency="116.500" range="361237.0M" magvar="1.0" region="DN" ident="BC" name="BENIN"><Dme lat="6.29833336919546" lon="5.58333322405815" alt="78.638M" range="361237.0M" /></Vor><Vor dme="TRUE" dmeOnly="FALSE" lat="9.64416649192572" lon="8.84388908743858" alt="1298.448M" type="HIGH" frequency="113.100" range="361237.0M" magvar="-0.26" region="DN" ident="JOS" name="JOS"><Dme lat="9.64416649192572" lon="8.84388908743858" alt="1298.448M" range="361237.0M" /></Vor><Vor dme="TRUE" dmeOnly="FALSE" lat="9.2911110073328" lon="12.4308335781097" alt="192.024M" type="HIGH" frequency="115.500" range="361237.0M" magvar="-0.95" region="DN" ident="YO" name="YOLA"><Dme lat="9.2911110073328" lon="12.4308335781097" alt="192.024M" range="361237.0M" /></Vor><Vor dme="TRUE" dmeOnly="FALSE" lat="9.33436095714569" lon="13.3445553481579" alt="210.007M" type="HIGH" frequency="112.300" range="361237.0M" magvar="-1.14" region="FK" ident="TJR" name="GAROUA"><Dme lat="9.33436095714569" lon="13.3445553481579" alt="210.007M" range="361237.0M" /></Vor><Vor dme="TRUE" dmeOnly="FALSE" lat="6.47416658699512" lon="7.59833335876465" alt="138.684M" type="HIGH" frequency="115.700" range="361237.0M" magvar="0.5" region="DN" ident="ENG" name="ENUGU"><Dme lat="6.47416658699512" lon="7.59833335876465" alt="138.684M" range="361237.0M" /></Vor><Vor dme="FALSE" dmeOnly="FALSE" lat="5.70569425821304" lon="9.30394425988197" alt="127.711M" type="HIGH" frequency="115.100" range="361237.0M" magvar="0.23" region="FK" ident="MF" name="MAMFE" /><Vor dme="TRUE" dmeOnly="FALSE" lat="6.05000004172325" lon="10.1166665554047" alt="1246.936M" type="HIGH" frequency="114.500" range="361237.0M" magvar="-0.01" region="FK" ident="BND" name="BAMENDA"><Dme lat="6.05000004172325" lon="10.1166665554047" alt="1246.936M" range="361237.0M" /></Vor><Vor dme="FALSE" dmeOnly="FALSE" lat="7.33008328825235" lon="13.5481667518616" alt="1132.027M" type="HIGH" frequency="112.700" range="361237.0M" magvar="-0.94" region="FK" ident="TJN" name="N'GAOUNDERE" /><Vor dme="TRUE" dmeOnly="FALSE" lat="5.03533344715834" lon="6.96018040180206" alt="28.956M" type="HIGH" frequency="113.500" range="361237.0M" magvar="0.91" region="DN" ident="POT" name="PORT HARCOURT"><Dme lat="5.03533344715834" lon="6.96018040180206" alt="28.956M" range="361237.0M" /></Vor><Vor dme="TRUE" dmeOnly="FALSE" lat="0.378447286784649" lon="6.71705827116966" alt="11.887M" type="HIGH" frequency="117.300" range="361237.0M" magvar="1.97" region="FP" ident="STM" name="SAO TOME"><Dme lat="0.378447286784649" lon="6.71705827116966" alt="11.887M" range="361237.0M" /></Vor><Vor dme="TRUE" dmeOnly="FALSE" lat="4.92055535316467" lon="8.32083329558373" alt="76.2M" type="HIGH" frequency="114.100" range="361237.0M" magvar="0.59" region="DN" ident="CAL" name="CALABAR"><Dme lat="4.92055535316467" lon="8.32083329558373" alt="76.2M" range="361237.0M" /></Vor><Vor dme="TRUE" dmeOnly="FALSE" lat="5.54681092500687" lon="10.3545194864273" alt="1332.89M" type="HIGH" frequency="116.500" range="361237.0M" magvar="0.01" region="FK" ident="BF" name="BAFOUSSAM"><Dme lat="5.54681092500687" lon="10.3545194864273" alt="1332.89M" range="361237.0M" /></Vor><Vor dme="TRUE" dmeOnly="FALSE" lat="3.76822203397751" lon="8.7202499806881" alt="17.068M" type="HIGH" frequency="114.500" range="361237.0M" magvar="0.7" region="FG" ident="MBO" name="MALABO"><Dme lat="3.76822203397751" lon="8.7202499806881" alt="17.068M" range="361237.0M" /></Vor><Vor dme="TRUE" dmeOnly="FALSE" lat="3.99391651153564" lon="9.74347203969955" alt="11.887M" type="HIGH" frequency="112.900" range="361237.0M" magvar="0.41" region="FK" ident="DLA" name="DOUALA"><Dme lat="3.99391651153564" lon="9.74347203969955" alt="11.887M" range="361237.0M" /></Vor><Vor dme="TRUE" dmeOnly="FALSE" lat="3.725805580616" lon="11.5564723312855" alt="702.868M" type="HIGH" frequency="115.700" range="361237.0M" magvar="0.01" region="FK" ident="NLY" name="YAOUNDE-NSIMALEN"><Dme lat="3.725805580616" lon="11.5564723312855" alt="702.868M" range="361237.0M" /></Vor><Vor dme="TRUE" dmeOnly="FALSE" lat="0.479833446443081" lon="9.40197229385376" alt="18.897M" type="HIGH" frequency="112.100" range="361237.0M" magvar="1.18" region="FO" ident="LV" name="LIBREVILLE"><Dme lat="0.479833446443081" lon="9.40197229385376" alt="18.897M" range="361237.0M" /></Vor><Vor dme="TRUE" dmeOnly="FALSE" lat="1.5356944128871" lon="11.5756943821907" alt="657.148M" type="HIGH" frequency="113.000" range="361237.0M" magvar="0.38" region="FO" ident="OE" name="OYEM"><Dme lat="1.5356944128871" lon="11.5756943821907" alt="657.148M" range="361237.0M" /></Vor><Vor dme="FALSE" dmeOnly="FALSE" lat="8.63708317279816" lon="16.0802498459816" alt="433.12M" type="HIGH" frequency="114.700" range="361237.0M" magvar="-1.6" region="FT" ident="TD" name="MOUNDOU" /><Vor dme="FALSE" dmeOnly="FALSE" lat="8.39711096137762" lon="20.6859442591667" alt="498.957M" type="HIGH" frequency="113.100" range="361237.0M" magvar="-2.37" region="FE" ident="LE" name="N'DELE" /><Vor dme="FALSE" dmeOnly="FALSE" lat="6.5259999409318" lon="21.989194303751" alt="4.876M" type="HIGH" frequency="113.500" range="361237.0M" magvar="-2.38" region="FE" ident="IA" name="BRIA" /><Vor dme="FALSE" dmeOnly="FALSE" lat="4.22936115413904" lon="15.7838335633278" alt="592.836M" type="HIGH" frequency="113.900" range="361237.0M" magvar="-1.03" region="FE" ident="BT" name="BERBERATI" /><Vor dme="TRUE" dmeOnly="FALSE" lat="4.37613900750875" lon="18.5253609716892" alt="361.797M" type="HIGH" frequency="117.300" range="361237.0M" magvar="-1.59" region="FE" ident="MPK" name="BANGUI"><Dme lat="4.37613900750875" lon="18.5253609716892" alt="361.797M" range="361237.0M" /></Vor><Vor dme="TRUE" dmeOnly="FALSE" lat="4.25076115876436" lon="20.966469347477" alt="456.895M" type="HIGH" frequency="112.100" range="361237.0M" magvar="-1.99" region="FZ" ident="BLT" name="GBADOLITE"><Dme lat="4.25076115876436" lon="20.966469347477" alt="456.895M" range="361237.0M" /></Vor><Vor dme="TRUE" dmeOnly="FALSE" lat="0.0500000640749931" lon="18.2833331823349" alt="323.088M" type="HIGH" frequency="115.700" range="361237.0M" magvar="-0.93" region="FZ" ident="MBA" name="MBANDAKA"><Dme lat="0.0500000640749931" lon="18.2833331823349" alt="323.088M" range="361237.0M" /></Vor><Vor dme="FALSE" dmeOnly="FALSE" lat="2.81861107796431" lon="24.8100002110004" alt="420.624M" type="HIGH" frequency="116.900" range="361237.0M" magvar="-2.26" region="FZ" ident="BUT" name="BUTA-ZEGA" /><Vor dme="TRUE" dmeOnly="FALSE" lat="2.81305555254221" lon="27.6013889908791" alt="743.102M" type="HIGH" frequency="116.700" range="361237.0M" magvar="-2.4" region="FZ" ident="IRO" name="ISIRO-MATARI"><Dme lat="2.81305555254221" lon="27.6013889908791" alt="743.102M" range="361237.0M" /></Vor><Vor dme="TRUE" dmeOnly="FALSE" lat="0.495277605950832" lon="25.313610881567" alt="441.96M" type="HIGH" frequency="114.500" range="361237.0M" magvar="-1.94" region="FZ" ident="KGI" name="KISANGANI"><Dme lat="0.495277605950832" lon="25.313610881567" alt="441.96M" range="361237.0M" /></Vor><Ndb lat="21.3722776249051" lon="0.91963604092598" alt="413.918M" type="HH" frequency="0304.00" range="208406.0M" magvar="-0.25" region="DA" ident="MOK" name="BORDJ MOKHTAR" /><Ndb lat="20.2570278570056" lon="0.988166481256485" alt="505.053M" type="H" frequency="0299.00" range="138937.0M" magvar="-0.13" region="GA" ident="TZE" name="TESSALIT" /><Ndb lat="19.5733331143856" lon="5.7619446516037" alt="399.897M" type="HH" frequency="0435.00" range="208406.0M" magvar="-0.93" region="DA" ident="IGZ" name="IN GUEZZAM" /><Ndb lat="18.78333337605" lon="7.36666649580002" alt="433.12M" type="COMPASS_POINT" frequency="0293.00" range="41681.0M" magvar="-1.11" region="DR" ident="ARL" name="ARLIT" /><Ndb lat="16.9563332945108" lon="7.97483325004578" alt="515.721M" type="COMPASS_POINT" frequency="0340.00" range="41681.0M" magvar="-1.01" region="DR" ident="AS" name="AGADES" /><Ndb lat="14.8833334073424" lon="5.26666671037674" alt="380.085M" type="COMPASS_POINT" frequency="0347.00" range="41681.0M" magvar="-0.27" region="DR" ident="TA" name="TAHOUA" /><Ndb lat="13.4809722751379" lon="2.15805530548096" alt="217.932M" type="COMPASS_POINT" frequency="0289.00" range="41681.0M" magvar="0.54" region="DR" ident="NY" name="NIAMEY" /><Ndb lat="12.0333331078291" lon="0.366666465997696" alt="323.088M" type="COMPASS_POINT" frequency="0258.00" range="41681.0M" magvar="1.17" region="DF" ident="FN" name="FADA N'GOURMA" /><Ndb lat="11.5722221508622" lon="1.45694464445114" alt="249.936M" type="COMPASS_POINT" frequency="0316.00" range="41681.0M" magvar="1.0" region="DF" ident="AY" name="ARLI" /><Ndb lat="12.9219442605972" lon="5.23000001907349" alt="284.073M" type="COMPASS_POINT" frequency="0397.00" range="41681.0M" magvar="0.0" region="DN" ident="SK" name="SOKOTO" /><Ndb lat="13.501110970974" lon="7.10916638374329" alt="407.517M" type="COMPASS_POINT" frequency="0284.00" range="41681.0M" magvar="-0.44" region="DR" ident="MY" name="MARADI" /><Ndb lat="13.7894943729043" lon="8.99783626198769" alt="480.06M" type="COMPASS_POINT" frequency="0264.00" range="41681.0M" magvar="-0.83" region="DR" ident="IN" name="ZINDER" /><Ndb lat="12.0335165038705" lon="8.51649150252342" alt="465.734M" type="MH" frequency="0260.00" range="69469.0M" magvar="-0.52" region="DN" ident="KO" name="KANO" /><Ndb lat="12.0586612075567" lon="8.54173913598061" alt="447.751M" type="H" frequency="0340.00" range="138937.0M" magvar="-0.53" region="DN" ident="AO" name="KANO" /><Ndb lat="17.9210916906595" lon="19.1130083799362" alt="246.583M" type="MH" frequency="0350.00" range="69469.0M" magvar="-2.88" region="FT" ident="FLU" name="FAYA LARGEAU" /><Ndb lat="12.1465833485126" lon="15.0475001335144" alt="308.457M" type="H" frequency="0370.00" range="138937.0M" magvar="-1.75" region="FT" ident="LN" name="N'DJAMENA" /><Ndb lat="13.4833054617047" lon="22.4636220932007" alt="789.736M" type="H" frequency="0261.00" range="138937.0M" magvar="-3.01" region="HS" ident="GNA" name="GENEINA" /><Ndb lat="13.6236332729459" lon="25.325835943222" alt="743.407M" type="H" frequency="0394.00" range="138937.0M" magvar="-3.32" region="HS" ident="FSR" name="EL FASHIR" /><Ndb lat="10.3666667640209" lon="1.35000005364418" alt="448.056M" type="H" frequency="0309.00" range="138937.0M" magvar="1.24" region="DB" ident="TYN" name="NATITINGOU" /><Ndb lat="11.1444443464279" lon="2.94055581092834" alt="307.848M" type="H" frequency="0366.00" range="138937.0M" magvar="0.75" region="DB" ident="TYK" name="KANDI" /><Ndb lat="9.83461104333401" lon="1.11986115574837" alt="458.114M" type="COMPASS_POINT" frequency="0318.00" range="41681.0M" magvar="1.39" region="DX" ident="NN" name="NIAMTOUGOU" /><Ndb lat="8.99999979883432" lon="1.15000024437904" alt="412.394M" type="COMPASS_POINT" frequency="0302.00" range="41681.0M" magvar="1.54" region="DX" ident="SK" name="SOKODE" /><Ndb lat="9.88333337008953" lon="4.50000017881393" alt="161.544M" type="COMPASS_POINT" frequency="0265.00" range="41681.0M" magvar="0.62" region="DN" ident="JJ" name="KAINJI" /><Ndb lat="10.5875000730157" lon="7.45000004768372" alt="630.631M" type="H" frequency="0356.00" range="138937.0M" magvar="-0.11" region="DN" ident="KD" name="KADUNA (OLD)" /><Ndb lat="10.5833332613111" lon="7.43333324790001" alt="621.792M" type="MH" frequency="0391.00" range="69469.0M" magvar="-0.11" region="DN" ident="KK" name="KADUNA (OLD)" /><Ndb lat="10.6819443404675" lon="7.30250000953674" alt="600.151M" type="COMPASS_POINT" frequency="0330.00" range="41681.0M" magvar="-0.09" region="DN" ident="KC" name="KADUNA" /><Ndb lat="9.02944441884756" lon="7.27333322167397" alt="328.574M" type="H" frequency="0321.00" range="138937.0M" magvar="0.16" region="DN" ident="AG" name="ABUJA" /><Ndb lat="6.23072225600481" lon="1.30616649985313" alt="46.024M" type="COMPASS_POINT" frequency="0294.00" range="41681.0M" magvar="2.08" region="DX" ident="LE" name="LOME" /><Ndb lat="6.16519454866648" lon="1.24774977564812" alt="38.404M" type="H" frequency="0379.00" range="138937.0M" magvar="2.11" region="DX" ident="LME" name="LOME" /><Ndb lat="6.37080565094948" lon="2.4024997651577" alt="17.068M" type="COMPASS_POINT" frequency="0284.00" range="41681.0M" magvar="1.77" region="DB" ident="CO" name="COTONOU" /><Ndb lat="6.6044444963336" lon="3.32777783274651" alt="42.062M" type="MH" frequency="0336.00" range="69469.0M" magvar="1.49" region="DN" ident="LA" name="LAGOS" /><Ndb lat="7.37761102616787" lon="3.99227768182755" alt="184.404M" type="COMPASS_POINT" frequency="0310.00" range="41681.0M" magvar="1.18" region="DN" ident="IN" name="IBADAN" /><Ndb lat="7.43333324790001" lon="3.91666665673256" alt="248.412M" type="H" frequency="0400.00" range="138937.0M" magvar="1.19" region="DN" ident="IB" name="IBADAN (OLD)" /><Ndb lat="7.23027762025595" lon="5.29472216963768" alt="311.505M" type="COMPASS_POINT" frequency="0276.00" range="41681.0M" magvar="0.9" region="DN" ident="AK" name="AKURE" /><Ndb lat="6.49999994784594" lon="4.83333349227905" alt="55.168M" type="H" frequency="0345.00" range="138937.0M" magvar="1.15" region="DN" ident="OK" name="OKITIPUPA" /><Ndb lat="6.33333317935467" lon="5.61666682362556" alt="79.248M" type="COMPASS_POINT" frequency="0272.00" range="41681.0M" magvar="0.99" region="DN" ident="BE" name="BENIN" /><Ndb lat="9.86666645854712" lon="8.88333320617676" alt="1261.567M" type="H" frequency="0403.00" range="138937.0M" magvar="-0.3" region="DN" ident="JS" name="JOS" /><Ndb lat="10.4622499644756" lon="14.2440555989742" alt="439.216M" type="MH" frequency="0364.00" range="69469.0M" magvar="-1.44" region="FK" ident="TJL" name="MAROUA" /><Ndb lat="9.2405553907156" lon="12.4355556070805" alt="175.26M" type="COMPASS_POINT" frequency="0286.00" range="41681.0M" magvar="-0.95" region="DN" ident="YO" name="YOLA" /><Ndb lat="9.26666669547558" lon="12.4333333969116" alt="173.736M" type="H" frequency="0336.00" range="138937.0M" magvar="-0.95" region="DN" ident="YL" name="YOLA" /><Ndb lat="9.33758329600096" lon="13.3954167366028" alt="249.936M" type="H" frequency="0302.00" range="138937.0M" magvar="-1.15" region="FK" ident="TJR" name="GAROUA" /><Ndb lat="7.71666672080755" lon="8.59999984502792" alt="109.728M" type="H" frequency="0364.00" range="138937.0M" magvar="0.07" region="DN" ident="MK" name="MAKURDI" /><Ndb lat="5.70722211152315" lon="9.30044442415237" alt="139.903M" type="H" frequency="0279.00" range="138937.0M" magvar="0.23" region="FK" ident="MF" name="MAMFE" /><Ndb lat="5.64311094582081" lon="10.752527564764" alt="1221.943M" type="H" frequency="0330.00" range="138937.0M" magvar="-0.1" region="FK" ident="TJM" name="FOUMBAN" /><Ndb lat="7.35605545341969" lon="13.5620275139809" alt="1117.092M" type="H" frequency="0295.00" range="138937.0M" magvar="-0.95" region="FK" ident="TJN" name="N'GAOUNDERE" /><Ndb lat="5.38750011473894" lon="4.90361094474792" alt="0.0M" type="H" frequency="0295.00" range="138937.0M" magvar="1.35" region="DN" ident="GD" name="SIRTE" /><Ndb lat="5.59999980032444" lon="5.19999995827675" alt="0.914M" type="MH" frequency="0305.00" range="69469.0M" magvar="1.23" region="DN" ident="ES" name="ESCRAVOS" /><Ndb lat="5.51666658371687" lon="5.93333333730698" alt="28.346M" type="MH" frequency="0300.00" range="69469.0M" magvar="1.07" region="DN" ident="SB1" name="UGHELLI" /><Ndb lat="4.99469429254532" lon="6.93941652774811" alt="22.86M" type="MH" frequency="0385.00" range="69469.0M" magvar="0.92" region="DN" ident="PR" name="PORT HARCOURT" /><Ndb lat="4.78333320468664" lon="6.35000020265579" alt="151.485M" type="MH" frequency="0276.00" range="69469.0M" magvar="1.11" region="DN" ident="SB2" name="OLOIBIRI" /><Ndb lat="4.83333326876163" lon="7.01666638255119" alt="465.124M" type="H" frequency="0370.00" range="138937.0M" magvar="0.93" region="DN" ident="PH" name="PORT HARCOURT" /><Ndb lat="1.66599713265896" lon="7.41235837340355" alt="178.003M" type="COMPASS_POINT" frequency="0311.00" range="41681.0M" magvar="1.47" region="FP" ident="PR" name="PRINCIPE" /><Ndb lat="0.374858155846596" lon="6.71663582324982" alt="10.058M" type="COMPASS_POINT" frequency="0330.00" range="41681.0M" magvar="1.97" region="FP" ident="SP" name="SAO TOME" /><Ndb lat="4.9666665494442" lon="8.3333332836628" alt="96.621M" type="H" frequency="0317.00" range="138937.0M" magvar="0.58" region="DN" ident="CR" name="CALABAR" /><Ndb lat="5.44999994337559" lon="10.0666666030884" alt="1417.929M" type="COMPASS_POINT" frequency="0308.00" range="41681.0M" magvar="0.09" region="FK" ident="TJS" name="DSCHANG" /><Ndb lat="4.49072230607271" lon="9.56772208213806" alt="141.122M" type="MH" frequency="0284.00" range="69469.0M" magvar="0.37" region="FK" ident="TJJ" name="M'BANGA" /><Ndb lat="4.08763892948627" lon="9.35588881373405" alt="64.008M" type="H" frequency="0270.00" range="138937.0M" magvar="0.49" region="FK" ident="TI" name="TIKO" /><Ndb lat="3.70124995708466" lon="8.91219422221184" alt="22.86M" type="H" frequency="0342.00" range="138937.0M" magvar="0.67" region="FG" ident="PA" name="MALABO" /><Ndb lat="3.77427779138088" lon="8.72566670179367" alt="22.86M" type="COMPASS_POINT" frequency="0310.00" range="41681.0M" magvar="0.7" region="FG" ident="BL" name="MALABO" /><Ndb lat="3.97475011646748" lon="9.78361129760742" alt="59.131M" type="H" frequency="0398.50" range="138937.0M" magvar="0.4" region="FK" ident="YK" name="DOUALA" /><Ndb lat="3.79077773541212" lon="10.1380553841591" alt="27.432M" type="COMPASS_POINT" frequency="0362.00" range="41681.0M" magvar="0.35" region="FK" ident="DE" name="EDEA" /><Ndb lat="2.85555548965931" lon="9.97027784585953" alt="63.093M" type="H" frequency="0335.00" range="138937.0M" magvar="0.55" region="FK" ident="KB" name="KRIBI" /><Ndb lat="4.5505553483963" lon="13.7172223627567" alt="668.121M" type="COMPASS_POINT" frequency="0274.00" range="41681.0M" magvar="-0.62" region="FK" ident="BT" name="BERTOUA" /><Ndb lat="4.47544176131487" lon="14.3666696548462" alt="677.875M" type="H" frequency="0276.00" range="138937.0M" magvar="-0.75" region="FK" ident="TJI" name="BATOURI" /><Ndb lat="3.74574981629848" lon="11.5571388602257" alt="710.793M" type="H" frequency="0368.00" range="138937.0M" magvar="0.01" region="FK" ident="YNS" name="YAOUNDE-NSIMALEN" /><Ndb lat="3.90138868242502" lon="11.5516667068005" alt="17.983M" type="COMPASS_POINT" frequency="0287.00" range="41681.0M" magvar="-0.02" region="FK" ident="YO" name="YAOUNDE (VILLE)" /><Ndb lat="1.905722245574" lon="9.80205550789833" alt="341.376M" type="HH" frequency="0325.00" range="208406.0M" magvar="0.78" region="FG" ident="BT" name="BATA" /><Ndb lat="0.535749793052673" lon="9.37486097216606" alt="11.887M" type="COMPASS_POINT" frequency="0305.00" range="41681.0M" magvar="1.17" region="FO" ident="LN" name="LIBREVILLE" /><Ndb lat="0.999999940395355" lon="10.7500000298023" alt="630.021M" type="COMPASS_POINT" frequency="0392.00" range="41681.0M" magvar="0.7" region="FO" ident="MED" name="MEDOUNEU" /><Ndb lat="2.08333343267441" lon="11.4833334088326" alt="600.151M" type="COMPASS_POINT" frequency="0264.00" range="41681.0M" magvar="0.31" region="FO" ident="IM" name="BITAM" /><Ndb lat="1.53752770274878" lon="11.5765276551247" alt="657.148M" type="COMPASS_POINT" frequency="0353.00" range="41681.0M" magvar="0.38" region="FO" ident="OY" name="OYEM" /><Ndb lat="0.783333443105221" lon="11.5500001609325" alt="601.065M" type="MH" frequency="0316.00" range="69469.0M" magvar="0.53" region="FO" ident="IC" name="MITZIC" /><Ndb lat="0.550000034272671" lon="12.8666666150093" alt="526.084M" type="H" frequency="0271.00" range="138937.0M" magvar="0.23" region="FO" ident="KO" name="MAKOKOU" /><Ndb lat="8.61777763813734" lon="16.0725000500679" alt="438.912M" type="H" frequency="0315.00" range="138937.0M" magvar="-1.59" region="FT" ident="MN" name="MOUNDOU" /><Ndb lat="9.14477773010731" lon="18.3775556087494" alt="378.256M" type="H" frequency="0429.00" range="138937.0M" magvar="-2.06" region="FT" ident="FA" name="SARH" /><Ndb lat="5.95277767628431" lon="15.6388887763023" alt="1024.128M" type="COMPASS_POINT" frequency="0388.00" range="41681.0M" magvar="-1.21" region="FE" ident="FBU" name="BOUAR" /><Ndb lat="10.2833332121372" lon="22.7833333611488" alt="516.94M" type="COMPASS_POINT" frequency="0298.00" range="41681.0M" magvar="-2.81" region="FE" ident="BO" name="BIRAO" /><Ndb lat="7.69999980926514" lon="28.0000001192093" alt="429.768M" type="H" frequency="0355.00" range="138937.0M" magvar="-3.0" region="HS" ident="WUW" name="WAU" /><Ndb lat="4.4905000180006" lon="18.4956112504005" alt="17.983M" type="MH" frequency="0265.50" range="69469.0M" magvar="-1.6" region="FE" ident="BN" name="BANGUI" /><Ndb lat="4.32433314621449" lon="18.5390554368496" alt="386.181M" type="H" frequency="0305.00" range="138937.0M" magvar="-1.59" region="FE" ident="PK" name="BANGUI" /><Ndb lat="3.63333340734243" lon="18.6333332955837" alt="328.574M" type="H" frequency="0336.00" range="138937.0M" magvar="-1.52" region="FZ" ident="LIB" name="LIBENGE" /><Ndb lat="3.64999998360872" lon="18.6333332955837" alt="327.355M" type="COMPASS_POINT" frequency="0285.00" range="41681.0M" magvar="-1.52" region="FZ" ident="LN" name="LIBENGE" /><Ndb lat="4.29999981075525" lon="21.0500000417233" alt="443.788M" type="H" frequency="0310.00" range="138937.0M" magvar="-2.01" region="FZ" ident="BLT" name="GBADOLITE" /><Ndb lat="4.6166667714715" lon="21.8666665256023" alt="456.59M" type="COMPASS_POINT" frequency="0378.00" range="41681.0M" magvar="-2.16" region="FE" ident="KB" name="KEMBE" /><Ndb lat="3.23333323001862" lon="19.7666667401791" alt="552.907M" type="H" frequency="0270.00" range="138937.0M" magvar="-1.67" region="FZ" ident="GEM" name="GEMENA" /><Ndb lat="4.16666653007269" lon="21.7499998211861" alt="472.44M" type="H" frequency="0340.00" range="138937.0M" magvar="-2.09" region="FZ" ident="KOT" name="KOTAKOLI" /><Ndb lat="1.61111108958721" lon="16.0583335161209" alt="352.958M" type="H" frequency="0392.00" range="138937.0M" magvar="-0.71" region="FC" ident="OU" name="OUESSO" /><Ndb lat="1.61666661500931" lon="18.0666665732861" alt="327.964M" type="MH" frequency="0370.00" range="69469.0M" magvar="-1.14" region="FC" ident="IP" name="IMPFONDO" /><Ndb lat="2.16666664928198" lon="21.4833332598209" alt="409.956M" type="H" frequency="0324.00" range="138937.0M" magvar="-1.8" region="FZ" ident="LIS" name="LISALA" /><Ndb lat="1.21216669678688" lon="19.7963333129883" alt="371.856M" type="H" frequency="0318.00" range="138937.0M" magvar="-1.4" region="FZ" ident="BSU" name="BASANKUSU" /><Ndb lat="2.84249983727932" lon="27.5713889300823" alt="749.198M" type="COMPASS_POINT" frequency="0405.00" range="41681.0M" magvar="-2.4" region="FZ" ident="IRO" name="ISIRO-MATARI" /><Ndb lat="2.19166651368141" lon="22.5499999523163" alt="422.452M" type="H" frequency="0285.00" range="138937.0M" magvar="-1.95" region="FZ" ident="BBA" name="BUMBA" /><Ndb lat="2.78333332389593" lon="24.7833332419395" alt="437.083M" type="H" frequency="0397.00" range="138937.0M" magvar="-2.26" region="FZ" ident="BUT" name="BUTA-ZEGA" /><Ndb lat="0.466666482388973" lon="25.35166695714" alt="431.901M" type="MH" frequency="0315.00" range="69469.0M" magvar="-1.94" region="FZ" ident="KIS" name="KISANGANI" /></FSData>