<?xml version="1.0" encoding="ISO-8859-1"?>
<!-- Created by Scenery Design Engine (SDE) on 3/16/2025 -->
<FSData
   version="9.0"
   xmlns:xsi="http://www.w3.org/2001/XMLSchema-instance"
   xsi:noNamespaceSchemaLocation="bglcomp.xsd">
   <SceneryObject
      lat="-51.8264194205403"
      lon="-58.4239889681339"
      alt="0.0M"
      altitudeIsAgl="TRUE"
      pitch="0"
      bank="0"
      heading="0"
      imageComplexity="NORMAL">
      <LibraryObject
         name="{3893d694-f519-4314-acb6-fe0b3b0d283a}"
         scale="1.00"
         />
   </SceneryObject>
   <SceneryObject
      lat="-51.8293695151806"
      lon="-58.4785889089108"
      alt="0.0M"
      altitudeIsAgl="TRUE"
      pitch="0"
      bank="0"
      heading="0"
      imageComplexity="NORMAL">
      <LibraryObject
         name="{2fb72c66-290c-4727-b970-da20984cee83}"
         scale="1.00"
         />
   </SceneryObject>
   <SceneryObject
      lat="-62.1994443610311"
      lon="-58.9613887667656"
      alt="0.0M"
      altitudeIsAgl="TRUE"
      pitch="0"
      bank="0"
      heading="0"
      imageComplexity="NORMAL">
      <LibraryObject
         name="{2fb72c66-290c-4727-b970-da20984cee83}"
         scale="1.00"
         />
   </SceneryObject>
   <SceneryObject
      lat="-62.1908331289887"
      lon="-58.982499986887"
      alt="0.0M"
      altitudeIsAgl="TRUE"
      pitch="0"
      bank="0"
      heading="0"
      imageComplexity="NORMAL">
      <LibraryObject
         name="{047814f7-e832-45fc-b5a0-4f047f8234b0}"
         scale="1.00"
         />
   </SceneryObject>
   <SceneryObject
      lat="-64.2316666245461"
      lon="-56.6000001132488"
      alt="0.0M"
      altitudeIsAgl="TRUE"
      pitch="0"
      bank="0"
      heading="0"
      imageComplexity="NORMAL">
      <LibraryObject
         name="{2fb72c66-290c-4727-b970-da20984cee83}"
         scale="1.00"
         />
   </SceneryObject>
   <SceneryObject
      lat="-64.2349999397993"
      lon="-56.6202776134014"
      alt="0.0M"
      altitudeIsAgl="TRUE"
      pitch="0"
      bank="0"
      heading="0"
      imageComplexity="NORMAL">
      <LibraryObject
         name="{047814f7-e832-45fc-b5a0-4f047f8234b0}"
         scale="1.00"
         />
   </SceneryObject>
   <SceneryObject
      lat="-63.4666667506099"
      lon="-56.2000000476837"
      alt="0.0M"
      altitudeIsAgl="TRUE"
      pitch="0"
      bank="0"
      heading="0"
      imageComplexity="NORMAL">
      <LibraryObject
         name="{5a003f36-68dd-4f97-b0b3-616863779a85}"
         scale="1.00"
         />
   </SceneryObject>
   <SceneryObject
      lat="-60.7172221317887"
      lon="-44.7669446468353"
      alt="0.0M"
      altitudeIsAgl="TRUE"
      pitch="0"
      bank="0"
      heading="0"
      imageComplexity="NORMAL">
      <LibraryObject
         name="{5a003f36-68dd-4f97-b0b3-616863779a85}"
         scale="1.00"
         />
   </SceneryObject>
   <Vor
      dme="FALSE"
      dmeOnly="FALSE"
      lat="-51.8264194205403"
      lon="-58.4239889681339"
      alt="57.912M"
      type="HIGH"
      frequency="114.700"
      range="361237.0M"
      magvar="-4"
      region="SF"
      ident="MTP"
      name="MOUNT PLEASANT">
   </Vor>
   <Vor
      dme="TRUE"
      dmeOnly="FALSE"
      lat="-62.1908331289887"
      lon="-58.982499986887"
      alt="49.072M"
      type="HIGH"
      frequency="113.300"
      range="361237.0M"
      magvar="-12"
      region="S1"
      ident="IRJ"
      name="ISLA REY JORGE">
      <Dme
         lat="-62.1908331289887"
         lon="-58.982499986887"
         alt="49.072M"
         range="361237.0M"/>
   </Vor>
   <Vor
      dme="TRUE"
      dmeOnly="FALSE"
      lat="-64.2349999397993"
      lon="-56.6202776134014"
      alt="231.648M"
      type="HIGH"
      frequency="117.900"
      range="361237.0M"
      magvar="-11"
      region="S1"
      ident="MBI"
      name="MARAMBIO">
      <Dme
         lat="-64.2349999397993"
         lon="-56.6202776134014"
         alt="231.648M"
         range="361237.0M"/>
   </Vor>
   <Ndb
      lat="-51.8293695151806"
      lon="-58.4785889089108"
      alt="66.751M"
      type="H"
      frequency="0380.00"
      range="138937.0M"
      magvar="-4"
      region="SF"
      ident="MP"
      name="MOUNT PLEASANT">
   </Ndb>
   <Ndb
      lat="-62.1994443610311"
      lon="-58.9613887667656"
      alt="0.0M"
      type="H"
      frequency="0360.00"
      range="138937.0M"
      magvar="-12"
      region="S1"
      ident="IRJ"
      name="ISLA REY JORGE">
   </Ndb>
   <Ndb
      lat="-64.2316666245461"
      lon="-56.6000001132488"
      alt="0.0M"
      type="H"
      frequency="0330.00"
      range="138937.0M"
      magvar="-11"
      region="S1"
      ident="MBI"
      name="MARAMBIO">
   </Ndb>
   <Ndb
      lat="-63.4666667506099"
      lon="-56.2000000476837"
      alt="2.133M"
      type="H"
      frequency="0330.00"
      range="138937.0M"
      magvar="-11"
      region="S1"
      ident="PET"
      name="PETREL">
   </Ndb>
   <Ndb
      lat="-60.7172221317887"
      lon="-44.7669446468353"
      alt="1.828M"
      type="H"
      frequency="0295.00"
      range="138937.0M"
      magvar="0"
      region="SA"
      ident="DNO"
      name="ORCADAS DEL SUR">
   </Ndb>
</FSData>
