<FSData version="9.0"><Vor dme="TRUE" dmeOnly="TRUE" lat="-45.4969415813684" lon="167.718322277069" alt="239.572M" type="HIGH" frequency="117.800" range="361237.0M" magvar="-25.16" region="NZ" ident="MO" name="MANAPOURI"><Dme lat="-45.4969415813684" lon="167.718322277069" alt="239.572M" range="361237.0M" /></Vor><Vor dme="TRUE" dmeOnly="FALSE" lat="-46.4115611091256" lon="168.317608237267" alt="4.572M" type="HIGH" frequency="116.800" range="361237.0M" magvar="-26.13" region="NZ" ident="NV" name="INVERCARGILL"><Dme lat="-46.4115611091256" lon="168.317608237267" alt="4.572M" range="361237.0M" /></Vor><Vor dme="TRUE" dmeOnly="TRUE" lat="-45.1655388996005" lon="169.479846954346" alt="243.84M" type="HIGH" frequency="117.100" range="361237.0M" magvar="-25.23" region="NZ" ident="LX" name="ALEXANDRA"><Dme lat="-45.1655388996005" lon="169.479846954346" alt="243.84M" range="361237.0M" /></Vor><Vor dme="TRUE" dmeOnly="FALSE" lat="-45.7945192605257" lon="170.477194190025" alt="743.102M" type="HIGH" frequency="112.700" range="361237.0M" magvar="-25.99" region="NZ" ident="SW" name="SWAMPY (DUNEDIN)"><Dme lat="-45.7945192605257" lon="170.477194190025" alt="743.102M" range="361237.0M" /></Vor><Vor dme="TRUE" dmeOnly="TRUE" lat="-45.9458833560348" lon="170.161930471659" alt="39.928M" type="HIGH" frequency="115.700" range="361237.0M" magvar="-26.07" region="NZ" ident="HL" name="HENLEY (DUNEDIN)"><Dme lat="-45.9458833560348" lon="170.161930471659" alt="39.928M" range="361237.0M" /></Vor><Ndb lat="-45.4969415813684" lon="167.718322277069" alt="312.724M" type="H" frequency="0346.00" range="138937.0M" magvar="-25.16" region="NZ" ident="MO" name="MANAPOURI" /><Ndb lat="-45.0226720422506" lon="168.737883120775" alt="356.616M" type="H" frequency="0362.00" range="138937.0M" magvar="-24.95" region="NZ" ident="QN" name="QUEENSTOWN" /><Ndb lat="-46.4187249541283" lon="168.332638889551" alt="1.828M" type="H" frequency="0214.00" range="138937.0M" magvar="-26.14" region="NZ" ident="NV" name="INVERCARGILL" /><Ndb lat="-45.1655388996005" lon="169.479846954346" alt="235.305M" type="MH" frequency="0386.00" range="69469.0M" magvar="-25.23" region="NZ" ident="LX" name="ALEXANDRA" /><Ndb lat="-45.8713833242655" lon="170.320152640343" alt="11.582M" type="MH" frequency="0358.00" range="69469.0M" magvar="-26.03" region="NZ" ident="MI" name="MOSGIEL (DUNEDIN)" /><Ndb lat="-45.9458833560348" lon="170.161930471659" alt="1.524M" type="H" frequency="0378.00" range="138937.0M" magvar="-26.07" region="NZ" ident="HL" name="HENLEY (DUNEDIN)" /><Ndb lat="-45.7969694584608" lon="170.477308183908" alt="724.509M" type="H" frequency="0338.00" range="138937.0M" magvar="-25.99" region="NZ" ident="SW" name="SWAMPY (DUNEDIN)" /><Ndb lat="-46.0278248414397" lon="169.983225166798" alt="191.109M" type="H" frequency="0394.00" range="138937.0M" magvar="-26.11" region="NZ" ident="BE" name="BERRIDALE (DUNEDIN)" /></FSData>