<FSData version="9.0"><Vor dme="TRUE" dmeOnly="FALSE" lat="63.9869445562363" lon="-22.6144444942474" alt="46.634M" type="HIGH" frequency="112.000" range="361237.0M" magvar="12.42" region="BI" ident="KEF" name="KEFLAVIK"><Dme lat="63.9869445562363" lon="-22.6144444942474" alt="46.634M" range="361237.0M" /></Vor><Vor dme="TRUE" dmeOnly="FALSE" lat="65.7597221061587" lon="-18.0041666328907" alt="625.754M" type="HIGH" frequency="113.600" range="361237.0M" magvar="10.6" region="BI" ident="AKI" name="AKUREYRI"><Dme lat="65.7597221061587" lon="-18.0041666328907" alt="625.754M" range="361237.0M" /></Vor><Vor dme="TRUE" dmeOnly="TRUE" lat="63.4202779456973" lon="-20.2722220122814" alt="178.917M" type="LOW" frequency="110.700" range="111150.0M" magvar="10.99" region="BI" ident="HL" name="HELGAFELL (VESTMANNAEYJAR)"><Dme lat="63.4202779456973" lon="-20.2722220122814" alt="178.917M" range="111150.0M" /></Vor><Vor dme="TRUE" dmeOnly="FALSE" lat="63.8030556589365" lon="-16.6380554437637" alt="102.108M" type="HIGH" frequency="112.400" range="361237.0M" magvar="9.22" region="BI" ident="ING" name="INGO"><Dme lat="63.8030556589365" lon="-16.6380554437637" alt="102.108M" range="361237.0M" /></Vor><Vor dme="TRUE" dmeOnly="FALSE" lat="59.8787555471063" lon="-1.28653317689896" alt="25.603M" type="HIGH" frequency="117.350" range="361237.0M" magvar="0.74" region="EG" ident="SUM" name="SUMBURGH"><Dme lat="59.8787555471063" lon="-1.28653317689896" alt="25.603M" range="361237.0M" /></Vor><Vor dme="TRUE" dmeOnly="TRUE" lat="58.2151556387544" lon="-6.32910266518593" alt="7.924M" type="TERMINAL" frequency="110.900" range="69469.0M" magvar="2.73" region="EG" ident="STW" name="STORNOWAY"><Dme lat="58.2151556387544" lon="-6.32910266518593" alt="7.924M" range="69469.0M" /></Vor><Vor dme="TRUE" dmeOnly="FALSE" lat="58.2069474086165" lon="-6.18304744362831" alt="76.2M" type="HIGH" frequency="115.100" range="361237.0M" magvar="2.66" region="EG" ident="STN" name="STORNOWAY"><Dme lat="58.2069474086165" lon="-6.18304744362831" alt="76.2M" range="361237.0M" /></Vor><Vor dme="TRUE" dmeOnly="TRUE" lat="58.2151556387544" lon="-6.32910266518593" alt="7.924M" type="TERMINAL" frequency="110.900" range="69469.0M" magvar="2.73" region="EG" ident="SOY" name="STORNOWAY"><Dme lat="58.2151556387544" lon="-6.32910266518593" alt="7.924M" range="69469.0M" /></Vor><Vor dme="TRUE" dmeOnly="TRUE" lat="57.4750862270594" lon="-7.37032234668732" alt="14.63M" type="TERMINAL" frequency="108.100" range="69469.0M" magvar="3.04" region="EG" ident="BCL" name="BENBECULA"><Dme lat="57.4750862270594" lon="-7.37032234668732" alt="14.63M" range="69469.0M" /></Vor><Vor dme="TRUE" dmeOnly="FALSE" lat="57.4779360741377" lon="-7.36529991030693" alt="10.972M" type="HIGH" frequency="113.950" range="361237.0M" magvar="3.04" region="EG" ident="BEN" name="BENBECULA"><Dme lat="57.4779360741377" lon="-7.36529991030693" alt="10.972M" range="361237.0M" /></Vor><Vor dme="TRUE" dmeOnly="FALSE" lat="56.4932113140821" lon="-6.87558889389038" alt="10.972M" type="HIGH" frequency="117.700" range="361237.0M" magvar="2.64" region="EG" ident="TIR" name="TIREE"><Dme lat="56.4932113140821" lon="-6.87558889389038" alt="10.972M" range="361237.0M" /></Vor><Vor dme="TRUE" dmeOnly="FALSE" lat="57.5426249206066" lon="-4.04154181480408" alt="17.678M" type="HIGH" frequency="109.200" range="361237.0M" magvar="1.61" region="EG" ident="INS" name="INVERNESS"><Dme lat="57.5426249206066" lon="-4.04154181480408" alt="17.678M" range="361237.0M" /></Vor><Vor dme="TRUE" dmeOnly="FALSE" lat="58.9596721529961" lon="-2.89394706487656" alt="19.812M" type="TERMINAL" frequency="108.600" range="69469.0M" magvar="1.33" region="EG" ident="KWL" name="KIRKWALL"><Dme lat="58.9596721529961" lon="-2.89394706487656" alt="19.812M" range="69469.0M" /></Vor><Vor dme="TRUE" dmeOnly="FALSE" lat="58.4588165581226" lon="-3.10037210583687" alt="33.528M" type="HIGH" frequency="113.600" range="361237.0M" magvar="1.35" region="EG" ident="WIK" name="WICK"><Dme lat="58.4588165581226" lon="-3.10037210583687" alt="33.528M" range="361237.0M" /></Vor><Vor dme="TRUE" dmeOnly="TRUE" lat="57.6592637971044" lon="-3.53511393070221" alt="22.86M" type="HIGH" frequency="109.800" range="361237.0M" magvar="1.41" region="EG" ident="KSS" name="KINLOSS"><Dme lat="57.6592637971044" lon="-3.53511393070221" alt="22.86M" range="361237.0M" /></Vor><Vor dme="TRUE" dmeOnly="FALSE" lat="57.3105555027723" lon="-2.26722210645676" alt="182.88M" type="HIGH" frequency="114.300" range="361237.0M" magvar="0.83" region="EG" ident="ADN" name="ABERDEEN"><Dme lat="57.3105555027723" lon="-2.26722210645676" alt="182.88M" range="361237.0M" /></Vor><Vor dme="TRUE" dmeOnly="TRUE" lat="56.3728139922023" lon="-2.86366939544678" alt="21.945M" type="HIGH" frequency="110.500" range="361237.0M" magvar="0.94" region="EG" ident="LUK" name="LEUCHARS"><Dme lat="56.3728139922023" lon="-2.86366939544678" alt="21.945M" range="361237.0M" /></Vor><Vor dme="FALSE" dmeOnly="FALSE" lat="56.4425001293421" lon="-3.36861088871956" alt="126.187M" type="HIGH" frequency="110.400" range="361237.0M" magvar="1.16" region="EG" ident="PTH" name="PERTH" /><Vor dme="TRUE" dmeOnly="TRUE" lat="54.2793860659003" lon="-8.60011652112007" alt="9.144M" type="HIGH" frequency="109.000" range="361237.0M" magvar="2.93" region="EI" ident="SLG" name="SLIGO"><Dme lat="54.2793860659003" lon="-8.60011652112007" alt="9.144M" range="361237.0M" /></Vor><Vor dme="TRUE" dmeOnly="FALSE" lat="53.9130221307278" lon="-8.81786361336708" alt="215.493M" type="HIGH" frequency="117.400" range="361237.0M" magvar="2.95" region="EI" ident="CON" name="CONNAUGHT"><Dme lat="53.9130221307278" lon="-8.81786361336708" alt="215.493M" range="361237.0M" /></Vor><Vor dme="TRUE" dmeOnly="TRUE" lat="53.3010111004114" lon="-8.94218042492867" alt="33.528M" type="TERMINAL" frequency="110.000" range="69469.0M" magvar="2.89" region="EI" ident="CRN" name="GALWAY"><Dme lat="53.3010111004114" lon="-8.94218042492867" alt="33.528M" range="69469.0M" /></Vor><Vor dme="TRUE" dmeOnly="FALSE" lat="52.7210112288594" lon="-8.88521388173103" alt="39.624M" type="HIGH" frequency="113.300" range="361237.0M" magvar="2.76" region="EI" ident="SHA" name="SHANNON"><Dme lat="52.7210112288594" lon="-8.88521388173103" alt="39.624M" range="361237.0M" /></Vor><Vor dme="TRUE" dmeOnly="FALSE" lat="51.8406083062291" lon="-8.49426940083504" alt="152.4M" type="HIGH" frequency="114.600" range="361237.0M" magvar="2.45" region="EI" ident="CRK" name="CORK"><Dme lat="51.8406083062291" lon="-8.49426940083504" alt="152.4M" range="361237.0M" /></Vor><Vor dme="TRUE" dmeOnly="TRUE" lat="55.6829665973783" lon="-6.24941378831863" alt="21.336M" type="TERMINAL" frequency="109.950" range="69469.0M" magvar="2.22" region="EG" ident="ISY" name="ISLAY"><Dme lat="55.6829665973783" lon="-6.24941378831863" alt="21.336M" range="69469.0M" /></Vor><Vor dme="TRUE" dmeOnly="FALSE" lat="55.4300222173333" lon="-5.65041393041611" alt="23.164M" type="HIGH" frequency="116.000" range="361237.0M" magvar="1.93" region="EG" ident="MAC" name="MACHRIHANISH"><Dme lat="55.4300222173333" lon="-5.65041393041611" alt="23.164M" range="361237.0M" /></Vor><Vor dme="TRUE" dmeOnly="TRUE" lat="55.9755945950747" lon="-3.97431135177612" alt="107.899M" type="HIGH" frequency="117.550" range="361237.0M" magvar="1.34" region="EG" ident="CBN" name="CUMBERNAULD"><Dme lat="55.9755945950747" lon="-3.97431135177612" alt="107.899M" range="361237.0M" /></Vor><Vor dme="TRUE" dmeOnly="FALSE" lat="55.8705029636621" lon="-4.44572478532791" alt="11.277M" type="HIGH" frequency="115.400" range="361237.0M" magvar="1.51" region="EG" ident="GOW" name="GLASGOW"><Dme lat="55.8705029636621" lon="-4.44572478532791" alt="11.277M" range="361237.0M" /></Vor><Vor dme="TRUE" dmeOnly="FALSE" lat="55.3133333846927" lon="-4.78388875722885" alt="182.88M" type="HIGH" frequency="117.500" range="361237.0M" magvar="1.56" region="EG" ident="TRN" name="TURNBERRY"><Dme lat="55.3133333846927" lon="-4.78388875722885" alt="182.88M" range="361237.0M" /></Vor><Vor dme="TRUE" dmeOnly="FALSE" lat="54.6611445397139" lon="-6.22990563511848" alt="59.131M" type="HIGH" frequency="117.200" range="361237.0M" magvar="2.04" region="EG" ident="BEL" name="BELFAST"><Dme lat="54.6611445397139" lon="-6.22990563511848" alt="59.131M" range="361237.0M" /></Vor><Vor dme="TRUE" dmeOnly="TRUE" lat="53.6468165740371" lon="-6.23491376638412" alt="30.48M" type="TERMINAL" frequency="112.900" range="69469.0M" magvar="1.87" region="EI" ident="GMN" name="GORMANSTON"><Dme lat="53.6468165740371" lon="-6.23491376638412" alt="30.48M" range="69469.0M" /></Vor><Vor dme="TRUE" dmeOnly="FALSE" lat="53.4993752092123" lon="-6.30710810422897" alt="60.96M" type="HIGH" frequency="114.900" range="361237.0M" magvar="1.87" region="EI" ident="DUB" name="DUBLIN"><Dme lat="53.4993752092123" lon="-6.30710810422897" alt="60.96M" range="361237.0M" /></Vor><Vor dme="TRUE" dmeOnly="FALSE" lat="54.0668665990233" lon="-4.76347491145134" alt="174.65M" type="HIGH" frequency="112.200" range="361237.0M" magvar="1.36" region="EG" ident="IOM" name="ISLE OF MAN"><Dme lat="54.0668665990233" lon="-4.76347491145134" alt="174.65M" range="361237.0M" /></Vor><Vor dme="TRUE" dmeOnly="FALSE" lat="55.9075000137091" lon="-2.20638871192932" alt="231.648M" type="HIGH" frequency="112.500" range="361237.0M" magvar="0.61" region="EG" ident="SAB" name="SAINT ABBS"><Dme lat="55.9075000137091" lon="-2.20638871192932" alt="231.648M" range="361237.0M" /></Vor><Vor dme="TRUE" dmeOnly="FALSE" lat="55.4991665482521" lon="-3.35277780890465" alt="849.172M" type="HIGH" frequency="113.800" range="361237.0M" magvar="1.02" region="EG" ident="TLA" name="TALLA"><Dme lat="55.4991665482521" lon="-3.35277780890465" alt="849.172M" range="361237.0M" /></Vor><Vor dme="TRUE" dmeOnly="TRUE" lat="54.9400278925896" lon="-2.80519187450409" alt="58.826M" type="TERMINAL" frequency="110.700" range="69469.0M" magvar="0.72" region="EG" ident="CO" name="CARLISLE"><Dme lat="54.9400278925896" lon="-2.80519187450409" alt="58.826M" range="69469.0M" /></Vor><Vor dme="TRUE" dmeOnly="FALSE" lat="55.0384471938014" lon="-1.69836938381195" alt="83.515M" type="HIGH" frequency="114.250" range="361237.0M" magvar="0.3" region="EG" ident="NEW" name="NEWCASTLE"><Dme lat="55.0384471938014" lon="-1.69836938381195" alt="83.515M" range="361237.0M" /></Vor><Vor dme="TRUE" dmeOnly="FALSE" lat="54.7219445183873" lon="-3.34055542945862" alt="213.36M" type="HIGH" frequency="115.200" range="361237.0M" magvar="0.9" region="EG" ident="DCS" name="DEAN CROSS"><Dme lat="54.7219445183873" lon="-3.34055542945862" alt="213.36M" range="361237.0M" /></Vor><Vor dme="TRUE" dmeOnly="TRUE" lat="54.1269443929195" lon="-3.26361089944839" alt="22.555M" type="TERMINAL" frequency="109.400" range="69469.0M" magvar="0.79" region="EG" ident="WL" name="BARROW (WALNEY ISLAND)"><Dme lat="54.1269443929195" lon="-3.26361089944839" alt="22.555M" range="69469.0M" /></Vor><Vor dme="TRUE" dmeOnly="TRUE" lat="53.7403472140431" lon="-2.89283886551857" alt="16.459M" type="HIGH" frequency="113.200" range="361237.0M" magvar="0.6" region="EG" ident="WTN" name="WARTON"><Dme lat="53.7403472140431" lon="-2.89283886551857" alt="16.459M" range="361237.0M" /></Vor><Vor dme="TRUE" dmeOnly="FALSE" lat="53.7438890710473" lon="-2.10333332419395" alt="426.72M" type="HIGH" frequency="112.100" range="361237.0M" magvar="0.3" region="EG" ident="POL" name="POLE HILL"><Dme lat="53.7438890710473" lon="-2.10333332419395" alt="426.72M" range="361237.0M" /></Vor><Vor dme="TRUE" dmeOnly="TRUE" lat="54.2971084266901" lon="-1.53687223792076" alt="40.233M" type="HIGH" frequency="112.600" range="361237.0M" magvar="0.15" region="EG" ident="LEE" name="LEEMING"><Dme lat="54.2971084266901" lon="-1.53687223792076" alt="40.233M" range="361237.0M" /></Vor><Vor dme="TRUE" dmeOnly="TRUE" lat="54.0504917129874" lon="-1.24904438853264" alt="16.154M" type="HIGH" frequency="109.000" range="361237.0M" magvar="0.02" region="EG" ident="LOO" name="LINTON-ON-OUSE"><Dme lat="54.0504917129874" lon="-1.24904438853264" alt="16.154M" range="361237.0M" /></Vor><Vor dme="TRUE" dmeOnly="FALSE" lat="53.69833342731" lon="-0.103611052036285" alt="0.304M" type="HIGH" frequency="113.900" range="361237.0M" magvar="-0.44" region="EG" ident="OTR" name="OTTRINGHAM"><Dme lat="53.69833342731" lon="-0.103611052036285" alt="0.304M" range="361237.0M" /></Vor><Vor dme="TRUE" dmeOnly="FALSE" lat="53.299894630909" lon="-6.44777789711952" alt="91.44M" type="HIGH" frequency="115.800" range="361237.0M" magvar="1.9" region="EI" ident="BAL" name="BALDONNEL"><Dme lat="53.299894630909" lon="-6.44777789711952" alt="91.44M" range="361237.0M" /></Vor><Vor dme="TRUE" dmeOnly="TRUE" lat="53.2574221864343" lon="-4.54413905739784" alt="30.784M" type="HIGH" frequency="108.400" range="361237.0M" magvar="1.16" region="EG" ident="VYL" name="VALLEY"><Dme lat="53.2574221864343" lon="-4.54413905739784" alt="30.784M" range="361237.0M" /></Vor><Vor dme="TRUE" dmeOnly="TRUE" lat="51.83200545609" lon="-4.97011676430702" alt="61.264M" type="HIGH" frequency="116.750" range="361237.0M" magvar="1.12" region="EG" ident="HDW" name="HAVERFORDWEST"><Dme lat="51.83200545609" lon="-4.97011676430702" alt="61.264M" range="361237.0M" /></Vor><Vor dme="TRUE" dmeOnly="FALSE" lat="51.9947223365307" lon="-5.04027798771858" alt="182.88M" type="HIGH" frequency="113.100" range="361237.0M" magvar="1.17" region="EG" ident="STU" name="STRUMBLE"><Dme lat="51.9947223365307" lon="-5.04027798771858" alt="182.88M" range="361237.0M" /></Vor><Vor dme="TRUE" dmeOnly="TRUE" lat="51.605933457613" lon="-4.07062232494354" alt="92.049M" type="TERMINAL" frequency="110.300" range="69469.0M" magvar="0.76" region="EG" ident="SWZ" name="SWANSEA"><Dme lat="51.605933457613" lon="-4.07062232494354" alt="92.049M" range="69469.0M" /></Vor><Vor dme="TRUE" dmeOnly="TRUE" lat="51.0858333483338" lon="-4.14333343505859" alt="9.144M" type="HIGH" frequency="111.600" range="361237.0M" magvar="0.72" region="EG" ident="CVR" name="CHIVENOR"><Dme lat="51.0858333483338" lon="-4.14333343505859" alt="9.144M" range="361237.0M" /></Vor><Vor dme="TRUE" dmeOnly="FALSE" lat="53.3919443562627" lon="-3.13444465398788" alt="16.764M" type="HIGH" frequency="114.100" range="361237.0M" magvar="0.64" region="EG" ident="WAL" name="WALLASEY"><Dme lat="53.3919443562627" lon="-3.13444465398788" alt="16.764M" range="361237.0M" /></Vor><Vor dme="TRUE" dmeOnly="FALSE" lat="52.7980026975274" lon="-2.66254171729088" alt="81.991M" type="HIGH" frequency="116.800" range="361237.0M" magvar="0.39" region="EG" ident="SWB" name="SHAWBURY"><Dme lat="52.7980026975274" lon="-2.66254171729088" alt="81.991M" range="361237.0M" /></Vor><Vor dme="TRUE" dmeOnly="FALSE" lat="53.3570250123739" lon="-2.2622886300087" alt="85.953M" type="HIGH" frequency="113.550" range="361237.0M" magvar="0.31" region="EG" ident="MCT" name="MANCHESTER"><Dme lat="53.3570250123739" lon="-2.2622886300087" alt="85.953M" range="361237.0M" /></Vor><Vor dme="TRUE" dmeOnly="TRUE" lat="52.6297222450376" lon="-3.15388888120651" alt="85.953M" type="HIGH" frequency="115.950" range="361237.0M" magvar="0.55" region="EG" ident="WPL" name="WELSHPOOL"><Dme lat="52.6297222450376" lon="-3.15388888120651" alt="85.953M" range="361237.0M" /></Vor><Vor dme="TRUE" dmeOnly="TRUE" lat="52.5157944113016" lon="-2.26181656122208" alt="91.44M" type="HIGH" frequency="108.600" range="361237.0M" magvar="0.22" region="EG" ident="WOL" name="WOLVERHAMPTON"><Dme lat="52.5157944113016" lon="-2.26181656122208" alt="91.44M" range="361237.0M" /></Vor><Vor dme="TRUE" dmeOnly="FALSE" lat="53.0538887903094" lon="-1.67000010609627" alt="295.046M" type="HIGH" frequency="115.700" range="361237.0M" magvar="0.06" region="EG" ident="TNT" name="TRENT"><Dme lat="53.0538887903094" lon="-1.67000010609627" alt="295.046M" range="361237.0M" /></Vor><Vor dme="TRUE" dmeOnly="FALSE" lat="53.2813890650868" lon="-0.947222113609314" alt="36.88M" type="HIGH" frequency="112.800" range="361237.0M" magvar="-0.18" region="EG" ident="GAM" name="GAMSTON"><Dme lat="53.2813890650868" lon="-0.947222113609314" alt="36.88M" range="361237.0M" /></Vor><Vor dme="TRUE" dmeOnly="TRUE" lat="53.3929806947708" lon="-1.38314187526703" alt="83.21M" type="TERMINAL" frequency="111.350" range="69469.0M" magvar="-0.0" region="EG" ident="SFH" name="SHEFFIELD CITY"><Dme lat="53.3929806947708" lon="-1.38314187526703" alt="83.21M" range="69469.0M" /></Vor><Vor dme="TRUE" dmeOnly="TRUE" lat="52.7353778108954" lon="-0.650769174098969" alt="137.769M" type="HIGH" frequency="112.300" range="361237.0M" magvar="-0.34" region="EG" ident="CTM" name="COTTESMORE"><Dme lat="52.7353778108954" lon="-0.650769174098969" alt="137.769M" range="361237.0M" /></Vor><Vor dme="TRUE" dmeOnly="TRUE" lat="53.0286223813891" lon="-0.485410988330841" alt="66.446M" type="HIGH" frequency="117.400" range="361237.0M" magvar="-0.37" region="EG" ident="CWZ" name="CRANWELL"><Dme lat="53.0286223813891" lon="-0.485410988330841" alt="66.446M" range="361237.0M" /></Vor><Vor dme="TRUE" dmeOnly="TRUE" lat="53.1653332337737" lon="-0.526833236217499" alt="70.408M" type="LOW" frequency="117.100" range="111150.0M" magvar="-0.34" region="EG" ident="WAD" name="WADDINGTON"><Dme lat="53.1653332337737" lon="-0.526833236217499" alt="70.408M" range="111150.0M" /></Vor><Vor dme="TRUE" dmeOnly="TRUE" lat="53.0910390615463" lon="-0.16897514462471" alt="7.315M" type="HIGH" frequency="111.100" range="361237.0M" magvar="-0.47" region="EG" ident="CGY" name="CONINGSBY"><Dme lat="53.0910390615463" lon="-0.16897514462471" alt="7.315M" range="361237.0M" /></Vor><Vor dme="TRUE" dmeOnly="FALSE" lat="52.356666661799" lon="-1.66361108422279" alt="132.588M" type="HIGH" frequency="113.650" range="361237.0M" magvar="-0.02" region="EG" ident="HON" name="HONILEY"><Dme lat="52.356666661799" lon="-1.66361108422279" alt="132.588M" range="361237.0M" /></Vor><Vor dme="TRUE" dmeOnly="FALSE" lat="52.1802778914571" lon="-1.11388877034187" alt="182.88M" type="HIGH" frequency="116.400" range="361237.0M" magvar="-0.23" region="EG" ident="DTY" name="DAVENTRY"><Dme lat="52.1802778914571" lon="-1.11388877034187" alt="182.88M" range="361237.0M" /></Vor><Vor dme="TRUE" dmeOnly="TRUE" lat="52.6079028099775" lon="-0.498727709054947" alt="89.916M" type="HIGH" frequency="117.600" range="361237.0M" magvar="-0.4" region="EG" ident="WIT" name="WITTERING"><Dme lat="52.6079028099775" lon="-0.498727709054947" alt="89.916M" range="361237.0M" /></Vor><Vor dme="FALSE" dmeOnly="FALSE" lat="52.0742166414857" lon="-0.610791742801666" alt="109.118M" type="HIGH" frequency="116.500" range="361237.0M" magvar="-0.41" region="EG" ident="CFD" name="CRANFIELD" /><Vor dme="TRUE" dmeOnly="TRUE" lat="51.4064029231668" lon="-3.4349749982357" alt="54.254M" type="HIGH" frequency="114.800" range="361237.0M" magvar="0.51" region="EG" ident="SAT" name="ST ATHAN"><Dme lat="51.4064029231668" lon="-3.4349749982357" alt="54.254M" range="361237.0M" /></Vor><Vor dme="TRUE" dmeOnly="FALSE" lat="51.7255556210876" lon="-3.26305568218231" alt="441.96M" type="HIGH" frequency="117.450" range="361237.0M" magvar="0.48" region="EG" ident="BCN" name="BRECON"><Dme lat="51.7255556210876" lon="-3.26305568218231" alt="441.96M" range="361237.0M" /></Vor><Vor dme="TRUE" dmeOnly="TRUE" lat="51.8921918794513" lon="-2.16792762279511" alt="33.832M" type="TERMINAL" frequency="115.550" range="69469.0M" magvar="0.11" region="EG" ident="GOS" name="GLOUCESTERSHIRE"><Dme lat="51.8921918794513" lon="-2.16792762279511" alt="33.832M" range="69469.0M" /></Vor><Vor dme="TRUE" dmeOnly="TRUE" lat="51.5101279690862" lon="-1.99226126074791" alt="141.122M" type="HIGH" frequency="109.800" range="361237.0M" magvar="0.01" region="EG" ident="LYE" name="LYNEHAM"><Dme lat="51.5101279690862" lon="-1.99226126074791" alt="141.122M" range="361237.0M" /></Vor><Vor dme="TRUE" dmeOnly="TRUE" lat="51.0049999505281" lon="-2.63866648077965" alt="34.442M" type="HIGH" frequency="111.000" range="361237.0M" magvar="0.18" region="EG" ident="VLN" name="YEOVILTON"><Dme lat="51.0049999505281" lon="-2.63866648077965" alt="34.442M" range="361237.0M" /></Vor><Vor dme="TRUE" dmeOnly="TRUE" lat="51.6816917806864" lon="-1.79761379957199" alt="91.135M" type="HIGH" frequency="113.400" range="361237.0M" magvar="-0.04" region="EG" ident="FFA" name="FAIRFORD"><Dme lat="51.6816917806864" lon="-1.79761379957199" alt="91.135M" range="361237.0M" /></Vor><Vor dme="TRUE" dmeOnly="FALSE" lat="51.4916666597128" lon="-1.219722032547" alt="151.79M" type="HIGH" frequency="114.350" range="361237.0M" magvar="-0.26" region="EG" ident="CPT" name="COMPTON"><Dme lat="51.4916666597128" lon="-1.219722032547" alt="151.79M" range="361237.0M" /></Vor><Vor dme="TRUE" dmeOnly="TRUE" lat="51.7481944710016" lon="-1.60352513194084" alt="100.888M" type="HIGH" frequency="111.900" range="361237.0M" magvar="-0.1" region="EG" ident="BZN" name="BRIZE NORTON"><Dme lat="51.7481944710016" lon="-1.60352513194084" alt="100.888M" range="361237.0M" /></Vor><Vor dme="TRUE" dmeOnly="TRUE" lat="51.6145000979304" lon="-1.09944462776184" alt="68.884M" type="TERMINAL" frequency="110.000" range="69469.0M" magvar="-0.29" region="EG" ident="BSO" name="BENSON"><Dme lat="51.6145000979304" lon="-1.09944462776184" alt="68.884M" range="69469.0M" /></Vor><Vor dme="TRUE" dmeOnly="TRUE" lat="51.8324332684278" lon="-1.32281675934792" alt="84.124M" type="TERMINAL" frequency="117.700" range="69469.0M" magvar="-0.19" region="EG" ident="OX" name="KIDLINGTON (OXFORD)"><Dme lat="51.8324332684278" lon="-1.32281675934792" alt="84.124M" range="69469.0M" /></Vor><Vor dme="TRUE" dmeOnly="FALSE" lat="51.7261111736298" lon="-0.54972231388092" alt="152.4M" type="HIGH" frequency="113.750" range="361237.0M" magvar="-0.47" region="EG" ident="BNN" name="BOVINGDON"><Dme lat="51.7261111736298" lon="-0.54972231388092" alt="152.4M" range="361237.0M" /></Vor><Vor dme="TRUE" dmeOnly="FALSE" lat="51.7497223243117" lon="-0.106666535139084" alt="116.433M" type="HIGH" frequency="117.500" range="361237.0M" magvar="-0.62" region="EG" ident="BPK" name="BROOKMANS PARK"><Dme lat="51.7497223243117" lon="-0.106666535139084" alt="116.433M" range="361237.0M" /></Vor><Vor dme="TRUE" dmeOnly="TRUE" lat="51.3469443842769" lon="-0.563888847827911" alt="32.004M" type="HIGH" frequency="109.850" range="361237.0M" magvar="-0.5" region="EG" ident="FRK" name="FAIROAKS"><Dme lat="51.3469443842769" lon="-0.563888847827911" alt="32.004M" range="361237.0M" /></Vor><Vor dme="TRUE" dmeOnly="TRUE" lat="51.4738222584128" lon="-0.433644354343414" alt="28.041M" type="TERMINAL" frequency="110.700" range="69469.0M" magvar="-0.53" region="EG" ident="HTT" name="HEATHROW (LONDON)"><Dme lat="51.4738222584128" lon="-0.433644354343414" alt="28.041M" range="69469.0M" /></Vor><Vor dme="TRUE" dmeOnly="FALSE" lat="51.4872222393751" lon="-0.4666668176651" alt="33.528M" type="HIGH" frequency="113.600" range="361237.0M" magvar="-0.52" region="EG" ident="LON" name="LONDON"><Dme lat="51.4872222393751" lon="-0.4666668176651" alt="33.528M" range="361237.0M" /></Vor><Vor dme="TRUE" dmeOnly="TRUE" lat="51.2328472360969" lon="-0.94849169254303" alt="124.968M" type="HIGH" frequency="109.600" range="361237.0M" magvar="-0.38" region="EG" ident="ODH" name="ODIHAM"><Dme lat="51.2328472360969" lon="-0.94849169254303" alt="124.968M" range="361237.0M" /></Vor><Vor dme="TRUE" dmeOnly="FALSE" lat="50.9552500024438" lon="-1.34505271911621" alt="20.116M" type="HIGH" frequency="113.350" range="361237.0M" magvar="-0.27" region="EG" ident="SAM" name="SOUTHAMPTON"><Dme lat="50.9552500024438" lon="-1.34505271911621" alt="20.116M" range="361237.0M" /></Vor><Vor dme="TRUE" dmeOnly="TRUE" lat="51.1489554494619" lon="-1.75264701247215" alt="131.064M" type="HIGH" frequency="108.200" range="361237.0M" magvar="-0.11" region="EG" ident="BDN" name="BOSCOMBE DOWN"><Dme lat="51.1489554494619" lon="-1.75264701247215" alt="131.064M" range="361237.0M" /></Vor><Vor dme="TRUE" dmeOnly="FALSE" lat="51.304999999702" lon="-0.447222143411636" alt="60.96M" type="HIGH" frequency="115.300" range="361237.0M" magvar="-0.54" region="EG" ident="OCK" name="OCKHAM"><Dme lat="51.304999999702" lon="-0.447222143411636" alt="60.96M" range="361237.0M" /></Vor><Vor dme="TRUE" dmeOnly="FALSE" lat="50.8552166819572" lon="-0.756736099720001" alt="34.442M" type="HIGH" frequency="114.750" range="361237.0M" magvar="-0.47" region="EG" ident="GWC" name="GOODWOOD"><Dme lat="50.8552166819572" lon="-0.756736099720001" alt="34.442M" range="361237.0M" /></Vor><Vor dme="TRUE" dmeOnly="TRUE" lat="50.8360999077559" lon="-0.293483287096024" alt="14.325M" type="TERMINAL" frequency="109.950" range="69469.0M" magvar="-0.63" region="EG" ident="SRH" name="SHOREHAM"><Dme lat="50.8360999077559" lon="-0.293483287096024" alt="14.325M" range="69469.0M" /></Vor><Vor dme="TRUE" dmeOnly="TRUE" lat="51.3233999535441" lon="-0.844864100217819" alt="103.936M" type="HIGH" frequency="116.200" range="361237.0M" magvar="-0.4" region="EG" ident="BLC" name="BLACKBUSHE"><Dme lat="51.3233999535441" lon="-0.844864100217819" alt="103.936M" range="361237.0M" /></Vor><Vor dme="TRUE" dmeOnly="FALSE" lat="51.0538889095187" lon="-0.624999850988388" alt="60.96M" type="HIGH" frequency="114.000" range="361237.0M" magvar="-0.5" region="EG" ident="MID" name="MIDHURST"><Dme lat="51.0538889095187" lon="-0.624999850988388" alt="60.96M" range="361237.0M" /></Vor><Vor dme="TRUE" dmeOnly="FALSE" lat="50.1362555846572" lon="-5.63698589801788" alt="243.84M" type="HIGH" frequency="114.200" range="361237.0M" magvar="1.14" region="EG" ident="LND" name="LANDS END"><Dme lat="50.1362555846572" lon="-5.63698589801788" alt="243.84M" range="361237.0M" /></Vor><Vor dme="TRUE" dmeOnly="TRUE" lat="50.4344612360001" lon="-5.03025278449059" alt="98.45M" type="HIGH" frequency="112.600" range="361237.0M" magvar="0.96" region="EG" ident="SMG" name="SAINT MAWGAN"><Dme lat="50.4344612360001" lon="-5.03025278449059" alt="98.45M" range="361237.0M" /></Vor><Vor dme="TRUE" dmeOnly="TRUE" lat="48.5282779857516" lon="-4.15630549192429" alt="110.947M" type="HIGH" frequency="115.150" range="361237.0M" magvar="0.44" region="LF" ident="LDV" name="LANDIVISIAU"><Dme lat="48.5282779857516" lon="-4.15630549192429" alt="110.947M" range="361237.0M" /></Vor><Vor dme="TRUE" dmeOnly="TRUE" lat="48.2846110314131" lon="-4.45211112499237" alt="99.974M" type="HIGH" frequency="114.700" range="361237.0M" magvar="0.52" region="LF" ident="BST" name="LANVEOC"><Dme lat="48.2846110314131" lon="-4.45211112499237" alt="99.974M" range="361237.0M" /></Vor><Vor dme="TRUE" dmeOnly="FALSE" lat="47.957277931273" lon="-4.18472215533257" alt="96.012M" type="HIGH" frequency="117.800" range="361237.0M" magvar="0.4" region="LF" ident="QPR" name="QUIMPER"><Dme lat="47.957277931273" lon="-4.18472215533257" alt="96.012M" range="361237.0M" /></Vor><Vor dme="TRUE" dmeOnly="FALSE" lat="50.3986111655831" lon="-3.49361121654511" alt="65.532M" type="HIGH" frequency="112.050" range="361237.0M" magvar="0.41" region="EG" ident="BHD" name="BERRY HEAD"><Dme lat="50.3986111655831" lon="-3.49361121654511" alt="65.532M" range="361237.0M" /></Vor><Vor dme="TRUE" dmeOnly="FALSE" lat="49.4371777027845" lon="-2.60369449853897" alt="108.204M" type="HIGH" frequency="109.400" range="361237.0M" magvar="0.01" region="EG" ident="GUR" name="GUERNSEY"><Dme lat="49.4371777027845" lon="-2.60369449853897" alt="108.204M" range="361237.0M" /></Vor><Vor dme="TRUE" dmeOnly="FALSE" lat="49.2211029678583" lon="-2.04615265130997" alt="84.124M" type="HIGH" frequency="112.200" range="361237.0M" magvar="-0.19" region="EG" ident="JSY" name="JERSEY"><Dme lat="49.2211029678583" lon="-2.04615265130997" alt="84.124M" range="361237.0M" /></Vor><Vor dme="TRUE" dmeOnly="FALSE" lat="48.5860554501414" lon="-2.08233341574669" alt="71.323M" type="HIGH" frequency="114.300" range="361237.0M" magvar="-0.23" region="LF" ident="DIN" name="DINARD"><Dme lat="48.5860554501414" lon="-2.08233341574669" alt="71.323M" range="361237.0M" /></Vor><Vor dme="FALSE" dmeOnly="FALSE" lat="48.3326390013099" lon="-3.60247224569321" alt="159.715M" type="HIGH" frequency="112.500" range="361237.0M" magvar="0.24" region="LF" ident="ARE" name="MONTS D'ARREE" /><Vor dme="FALSE" dmeOnly="FALSE" lat="49.1716668382287" lon="-0.45566663146019" alt="78.028M" type="HIGH" frequency="115.400" range="361237.0M" magvar="-0.71" region="LF" ident="CAN" name="CAEN" /><Vor dme="TRUE" dmeOnly="FALSE" lat="48.0692500993609" lon="-1.74166649580002" alt="37.795M" type="HIGH" frequency="109.250" range="361237.0M" magvar="-0.38" region="LF" ident="REN" name="RENNES"><Dme lat="48.0692500993609" lon="-1.74166649580002" alt="37.795M" range="361237.0M" /></Vor><Vor dme="TRUE" dmeOnly="TRUE" lat="47.7614723145962" lon="-3.44116643071175" alt="49.987M" type="HIGH" frequency="115.800" range="361237.0M" magvar="0.14" region="LF" ident="LOR" name="LORIENT"><Dme lat="47.7614723145962" lon="-3.44116643071175" alt="49.987M" range="361237.0M" /></Vor><Vor dme="TRUE" dmeOnly="FALSE" lat="47.1608610078692" lon="-1.61297231912613" alt="28.041M" type="HIGH" frequency="115.500" range="361237.0M" magvar="-0.49" region="LF" ident="NTS" name="NANTES"><Dme lat="47.1608610078692" lon="-1.61297231912613" alt="28.041M" range="361237.0M" /></Vor><Vor dme="FALSE" dmeOnly="FALSE" lat="47.5368611142039" lon="-0.851833373308182" alt="86.258M" type="HIGH" frequency="113.000" range="361237.0M" magvar="-0.69" region="LF" ident="ANG" name="ANGERS" /><Vor dme="TRUE" dmeOnly="TRUE" lat="45.6614723056555" lon="-0.307861268520355" alt="41.148M" type="HIGH" frequency="116.200" range="361237.0M" magvar="-0.96" region="LF" ident="CGC" name="COGNAC"><Dme lat="45.6614723056555" lon="-0.307861268520355" alt="41.148M" range="361237.0M" /></Vor><Vor dme="TRUE" dmeOnly="FALSE" lat="45.6595555320382" lon="-0.311638712882996" alt="32.308M" type="HIGH" frequency="114.650" range="361237.0M" magvar="-0.96" region="LF" ident="CNA" name="COGNAC"><Dme lat="45.6595555320382" lon="-0.311638712882996" alt="32.308M" range="361237.0M" /></Vor><Ndb lat="66.0983332246542" lon="-23.0388888716698" alt="36.88M" type="COMPASS_POINT" frequency="0385.00" range="41681.0M" magvar="13.48" region="BI" ident="IS" name="ISAFJORDUR" /><Ndb lat="65.5024999380112" lon="-24.5302779972553" alt="31.089M" type="MH" frequency="0405.00" range="69469.0M" magvar="14.04" region="BI" ident="BJ" name="BJARGTANGAR" /><Ndb lat="65.5558333173394" lon="-23.9530554413795" alt="2.438M" type="COMPASS_POINT" frequency="0348.00" range="41681.0M" magvar="13.75" region="BI" ident="PA" name="PATREKSFJORDUR" /><Ndb lat="65.7886111736298" lon="-23.9908334612846" alt="6.096M" type="COMPASS_POINT" frequency="0310.00" range="41681.0M" magvar="13.87" region="BI" ident="SB" name="SELARDALUR" /><Ndb lat="66.0438890755177" lon="-22.6813888549805" alt="0.0M" type="MH" frequency="0400.00" range="69469.0M" magvar="13.26" region="BI" ident="OG" name="OGUR (ISAFJORDUR)" /><Ndb lat="64.9127777293324" lon="-23.8199999928474" alt="5.486M" type="COMPASS_POINT" frequency="0330.00" range="41681.0M" magvar="13.42" region="BI" ident="RF" name="RIF" /><Ndb lat="65.0600001588464" lon="-22.7555555105209" alt="8.839M" type="COMPASS_POINT" frequency="0382.00" range="41681.0M" magvar="12.92" region="BI" ident="SU" name="STYKKISHOLMUR" /><Ndb lat="64.0494443848729" lon="-22.6049999892712" alt="52.12M" type="MH" frequency="0364.00" range="69469.0M" magvar="12.44" region="BI" ident="OK" name="KEFLAVIK" /><Ndb lat="63.9849999547005" lon="-22.7316668629646" alt="52.12M" type="H" frequency="0392.00" range="138937.0M" magvar="12.48" region="BI" ident="KF" name="KEFLAVIK" /><Ndb lat="65.92638887465" lon="-22.4316667020321" alt="9.144M" type="COMPASS_POINT" frequency="0316.00" range="41681.0M" magvar="13.08" region="BI" ident="RE" name="REYKJANESSKOLI" /><Ndb lat="65.6436112895608" lon="-21.4736111462116" alt="1.219M" type="H" frequency="0366.00" range="138937.0M" magvar="12.45" region="BI" ident="HK" name="HOLMAVIK" /><Ndb lat="65.9947221726179" lon="-21.3299998641014" alt="29.87M" type="COMPASS_POINT" frequency="0340.00" range="41681.0M" magvar="12.51" region="BI" ident="GJ" name="GJOGUR" /><Ndb lat="65.6863888353109" lon="-20.2924999594688" alt="38.404M" type="MH" frequency="0351.00" range="69469.0M" magvar="11.83" region="BI" ident="BL" name="BLONDUOS" /><Ndb lat="65.5766667053103" lon="-19.4883334636688" alt="29.87M" type="COMPASS_POINT" frequency="0344.00" range="41681.0M" magvar="11.35" region="BI" ident="LA" name="LANGHOLT (SAUDARKROKUR)" /><Ndb lat="65.7508332654834" lon="-19.5191667973995" alt="55.778M" type="H" frequency="0362.00" range="138937.0M" magvar="11.43" region="BI" ident="HE" name="HEGRANES (SAUDARKROKUR)" /><Ndb lat="66.0669443383813" lon="-19.3333335220814" alt="5.181M" type="H" frequency="0370.00" range="138937.0M" magvar="11.44" region="BI" ident="SD" name="SLETTUHLID" /><Ndb lat="66.5283332392573" lon="-17.9830554127693" alt="2.133M" type="H" frequency="0308.00" range="138937.0M" magvar="10.85" region="BI" ident="GR" name="GRIMSEY" /><Ndb lat="66.4502779394388" lon="-15.9544444084167" alt="21.945M" type="H" frequency="0410.00" range="138937.0M" magvar="9.69" region="BI" ident="RA" name="RAUFARHOFN" /><Ndb lat="66.3074999302626" lon="-16.4613890647888" alt="6.096M" type="MH" frequency="0400.00" range="69469.0M" magvar="9.93" region="BI" ident="KP" name="KOPASKER" /><Ndb lat="66.2208333984017" lon="-15.3311111032963" alt="17.983M" type="COMPASS_POINT" frequency="0373.00" range="41681.0M" magvar="9.27" region="BI" ident="TN" name="THORSHOFN" /><Ndb lat="65.6355556100607" lon="-18.0677779018879" alt="4.572M" type="COMPASS_POINT" frequency="0357.00" range="41681.0M" magvar="10.6" region="BI" ident="HV" name="HVAMMUR (AKUREYRI)" /><Ndb lat="65.8516665548086" lon="-18.1916669011116" alt="4.267M" type="COMPASS_POINT" frequency="0319.00" range="41681.0M" magvar="10.74" region="BI" ident="HJ" name="HJALTEYRI (AKUREYRI)" /><Ndb lat="65.5005556717515" lon="-18.1508333981037" alt="19.507M" type="COMPASS_POINT" frequency="0324.00" range="41681.0M" magvar="10.6" region="BI" ident="TO" name="TORFUR (AKUREYRI)" /><Ndb lat="65.7558332383633" lon="-18.0894443392754" alt="25.908M" type="MH" frequency="0334.00" range="69469.0M" magvar="10.65" region="BI" ident="AR" name="AKUREYRI" /><Ndb lat="65.9270305931568" lon="-17.4387556314468" alt="24.993M" type="COMPASS_POINT" frequency="0329.00" range="41681.0M" magvar="10.35" region="BI" ident="HS" name="HUSAVIK" /><Ndb lat="65.6247221678495" lon="-16.9205555319786" alt="276.148M" type="COMPASS_POINT" frequency="0405.00" range="41681.0M" magvar="9.96" region="BI" ident="RL" name="REYKJAHLID" /><Ndb lat="65.8777778595686" lon="-17.4633331596851" alt="36.271M" type="MH" frequency="0377.00" range="69469.0M" magvar="10.34" region="BI" ident="GA" name="GARDUR (HUSAVIK)" /><Ndb lat="65.3261111676693" lon="-18.2936109602451" alt="225.856M" type="MH" frequency="0387.00" range="69469.0M" magvar="10.61" region="BI" ident="NB" name="BOTN (AKUREYRI)" /><Ndb lat="65.6297221407294" lon="-15.041388720274" alt="42.976M" type="COMPASS_POINT" frequency="0348.00" range="41681.0M" magvar="8.93" region="BI" ident="HA" name="HOFSA" /><Ndb lat="64.133889041841" lon="-21.9616667926311" alt="10.668M" type="MH" frequency="0370.00" range="69469.0M" magvar="12.13" region="BI" ident="NS" name="NES (REYKJAVIK)" /><Ndb lat="64.081111215055" lon="-21.7708334326744" alt="76.2M" type="HH" frequency="0335.00" range="208406.0M" magvar="12.01" region="BI" ident="EL" name="ELLIDAVATN" /><Ndb lat="64.1494445130229" lon="-21.9416664540768" alt="3.962M" type="MH" frequency="0319.00" range="69469.0M" magvar="12.13" region="BI" ident="GF" name="GROF (REYKJAVIK)" /><Ndb lat="64.1513887792826" lon="-22.0288887619972" alt="2.133M" type="HH" frequency="0355.00" range="208406.0M" magvar="12.18" region="BI" ident="RK" name="REYKJAVIK" /><Ndb lat="64.3055554479361" lon="-21.9713889062405" alt="15.544M" type="MH" frequency="0379.00" range="69469.0M" magvar="12.21" region="BI" ident="SA" name="SKAGI" /><Ndb lat="64.6641667932272" lon="-21.2863889336586" alt="37.49M" type="COMPASS_POINT" frequency="0325.00" range="41681.0M" magvar="11.98" region="BI" ident="RH" name="REYKHOLT" /><Ndb lat="63.9288888126612" lon="-21.0341665148735" alt="6.096M" type="COMPASS_POINT" frequency="0397.00" range="41681.0M" magvar="11.57" region="BI" ident="SE" name="SELFOSS" /><Ndb lat="63.4241668134928" lon="-20.2819445729256" alt="134.112M" type="COMPASS_POINT" frequency="0345.00" range="41681.0M" magvar="10.99" region="BI" ident="HL" name="HELGAFELL (VESTMANNAEYJAR)" /><Ndb lat="63.3997221663594" lon="-20.2883331477642" alt="110.947M" type="HH" frequency="0375.00" range="208406.0M" magvar="10.99" region="BI" ident="VM" name="VESTMANNAEYJAR" /><Ndb lat="63.5166668146849" lon="-17.9816664755344" alt="1.219M" type="H" frequency="0312.60" range="138937.0M" magvar="9.83" region="BI" ident="SR" name="SKARDSFJARA" /><Ndb lat="64.2691665887833" lon="-15.213333517313" alt="0.304M" type="HH" frequency="0330.00" range="208406.0M" magvar="8.62" region="BI" ident="HN" name="HORNAFJORDUR (HOFN)" /><Ndb lat="65.7163890078664" lon="-14.8538888990879" alt="3.352M" type="COMPASS_POINT" frequency="0393.00" range="41681.0M" magvar="8.86" region="BI" ident="VP" name="VOPNAFJORDUR" /><Ndb lat="65.3327777981758" lon="-14.3724998831749" alt="59.131M" type="COMPASS_POINT" frequency="0382.00" range="41681.0M" magvar="8.48" region="BI" ident="BR" name="BREIDAVAD (EGILSSTADIR)" /><Ndb lat="65.2386111393571" lon="-14.451944231987" alt="43.586M" type="MH" frequency="0365.00" range="69469.0M" magvar="8.5" region="BI" ident="ES" name="EGILSSTADIR" /><Ndb lat="65.109444335103" lon="-14.5961111783981" alt="142.036M" type="MH" frequency="0335.00" range="69469.0M" magvar="8.54" region="BI" ident="VA" name="VAD (EGILSSTADIR)" /><Ndb lat="65.27000002563" lon="-13.5761113464832" alt="2.133M" type="H" frequency="0307.50" range="138937.0M" magvar="8.03" region="BI" ident="DA" name="DALATANGI" /><Ndb lat="65.1347221434116" lon="-13.7363889813423" alt="1.524M" type="COMPASS_POINT" frequency="0325.00" range="41681.0M" magvar="8.08" region="BI" ident="NF" name="NORDFJORDUR" /><Ndb lat="64.6525001898408" lon="-14.27694439888" alt="6.096M" type="H" frequency="0320.00" range="138937.0M" magvar="8.23" region="BI" ident="DO" name="DJUPIVOGUR" /><Ndb lat="62.1068974211812" lon="-7.58767515420914" alt="439.216M" type="HH" frequency="0337.00" range="208406.0M" magvar="4.11" region="EK" ident="MY" name="MYGGENAES (VAGAR)" /><Ndb lat="61.9581444561481" lon="-6.61669984459877" alt="9.753M" type="HH" frequency="0404.00" range="208406.0M" magvar="3.6" region="EK" ident="NL" name="NOLSO" /><Ndb lat="62.0433501899242" lon="-7.19566091895103" alt="80.162M" type="COMPASS_POINT" frequency="0348.00" range="41681.0M" magvar="3.9" region="EK" ident="VG" name="VAGAR" /><Ndb lat="61.3952557370067" lon="-6.68124139308929" alt="2.438M" type="HH" frequency="0381.00" range="208406.0M" magvar="3.52" region="EK" ident="AB" name="AKRABERG" /><Ndb lat="59.8823751881719" lon="-1.29483327269554" alt="5.791M" type="HH" frequency="0351.00" range="208406.0M" magvar="0.75" region="EG" ident="SBH" name="SUMBURGH" /><Ndb lat="60.4601806774735" lon="-1.21534153819084" alt="22.86M" type="MH" frequency="0315.50" range="69469.0M" magvar="0.78" region="EG" ident="SS" name="SCATSTA" /><Ndb lat="60.1883334293962" lon="-1.24638900160789" alt="13.106M" type="MH" frequency="0376.00" range="69469.0M" magvar="0.76" region="EG" ident="TL" name="LERWICK (TINGWALL)" /><Ndb lat="58.5155556723475" lon="-6.26194462180138" alt="1.219M" type="H" frequency="0289.00" range="138937.0M" magvar="2.76" region="EG" ident="BL" name="BUTT OF LEWIS" /><Ndb lat="57.0256277918816" lon="-7.44892224669456" alt="5.486M" type="H" frequency="0316.00" range="138937.0M" magvar="2.99" region="EG" ident="BRR" name="BARRA" /><Ndb lat="57.2533332556486" lon="-5.82444459199905" alt="3.048M" type="MH" frequency="0390.00" range="69469.0M" magvar="2.33" region="EG" ident="BFD" name="ISLE OF SKYE" /><Ndb lat="56.463611125946" lon="-5.39500012993813" alt="6.096M" type="COMPASS_POINT" frequency="0404.00" range="41681.0M" magvar="2.0" region="EG" ident="CNL" name="OBAN (NORTH CONNEL)" /><Ndb lat="58.4467305243015" lon="-3.06311935186386" alt="12.192M" type="MH" frequency="0344.00" range="69469.0M" magvar="1.33" region="EG" ident="WCK" name="WICK" /><Ndb lat="58.9592668041587" lon="-2.89930254220963" alt="17.678M" type="MH" frequency="0395.00" range="69469.0M" magvar="1.34" region="EG" ident="KW" name="KIRKWALL" /><Ndb lat="58.6444445326924" lon="-3.02361086010933" alt="-0.304M" type="H" frequency="0290.50" range="138937.0M" magvar="1.34" region="EG" ident="DY" name="DUNCANSBY HEAD" /><Ndb lat="57.6977779716253" lon="-2.00222209095955" alt="1.524M" type="HH" frequency="0301.50" range="208406.0M" magvar="0.77" region="EG" ident="KD" name="KINNAIRDS HEAD LT. H." /><Ndb lat="57.6504084840417" lon="-3.58704149723053" alt="28.041M" type="COMPASS_POINT" frequency="0370.00" range="41681.0M" magvar="1.43" region="EG" ident="KS" name="KINLOSS" /><Ndb lat="57.1386111527681" lon="-2.04722240567207" alt="0.0M" type="H" frequency="0311.00" range="138937.0M" magvar="0.71" region="EG" ident="GD" name="GIRDLE NESS" /><Ndb lat="57.1383335441351" lon="-2.40472197532654" alt="90.83M" type="MH" frequency="0336.00" range="69469.0M" magvar="0.86" region="EG" ident="AQ" name="ABERDEEN" /><Ndb lat="57.0775137841702" lon="-2.10569992661476" alt="65.532M" type="COMPASS_POINT" frequency="0348.00" range="41681.0M" magvar="0.73" region="EG" ident="ATF" name="ABERDEEN" /><Ndb lat="56.278889067471" lon="-2.58499994874001" alt="-2.133M" type="H" frequency="0305.00" range="138937.0M" magvar="0.82" region="EG" ident="FP" name="FIFE NESS" /><Ndb lat="57.5591667741537" lon="-1.81722208857536" alt="0.914M" type="MH" frequency="0383.00" range="69469.0M" magvar="0.67" region="EG" ident="SHD" name="SCOTSTOWN HEAD" /><Ndb lat="55.2725001052022" lon="-8.24861124157906" alt="4.876M" type="HH" frequency="0313.00" range="208406.0M" magvar="2.98" region="EI" ident="TY" name="TORY ISLAND LT. H." /><Ndb lat="55.0440057367086" lon="-8.33927482366562" alt="9.144M" type="MH" frequency="0361.00" range="69469.0M" magvar="2.97" region="EI" ident="CFN" name="CARRICKFIN" /><Ndb lat="54.2830556631088" lon="-10.0919446349144" alt="0.0M" type="HH" frequency="0307.00" range="208406.0M" magvar="3.55" region="EI" ident="GL" name="EAGLE ISLAND LT. H." /><Ndb lat="54.2782974243164" lon="-8.59988316893578" alt="3.352M" type="H" frequency="0384.00" range="138937.0M" magvar="2.93" region="EI" ident="SLG" name="SLIGO" /><Ndb lat="53.9239306747913" lon="-8.699791431427" alt="224.028M" type="HH" frequency="0398.00" range="208406.0M" magvar="2.91" region="EI" ident="OK" name="CONNAUGHT" /><Ndb lat="53.8965027406812" lon="-8.93700018525124" alt="224.028M" type="HH" frequency="0364.00" range="208406.0M" magvar="3.0" region="EI" ident="KNK" name="CONNAUGHT" /><Ndb lat="52.5608333945274" lon="-9.93166655302048" alt="44.805M" type="H" frequency="0311.50" range="138937.0M" magvar="3.15" region="EI" ident="LP" name="LOOP HEAD LT. H." /><Ndb lat="52.1821557730436" lon="-9.52448889613152" alt="34.137M" type="COMPASS_POINT" frequency="0334.00" range="41681.0M" magvar="2.92" region="EI" ident="KER" name="KERRY" /><Ndb lat="52.9051529243588" lon="-8.9277720451355" alt="21.945M" type="MH" frequency="0352.00" range="69469.0M" magvar="2.81" region="EI" ident="ENS" name="ENNIS" /><Ndb lat="53.3010805025697" lon="-8.94175261259079" alt="24.688M" type="H" frequency="0321.00" range="138937.0M" magvar="2.89" region="EI" ident="CRN" name="GALWAY" /><Ndb lat="52.566255480051" lon="-9.19541090726852" alt="49.682M" type="H" frequency="0395.00" range="138937.0M" magvar="2.85" region="EI" ident="FOY" name="FOYNES" /><Ndb lat="51.4508333802223" lon="-9.81333330273628" alt="23.774M" type="HH" frequency="0300.00" range="208406.0M" magvar="2.9" region="EI" ident="MZ" name="MIZEN HEAD LT. H." /><Ndb lat="51.6044444963336" lon="-8.53277787566185" alt="1.828M" type="H" frequency="0288.00" range="138937.0M" magvar="2.43" region="EI" ident="OH" name="OLD HEAD OF KINSALE LT. H." /><Ndb lat="51.755122281611" lon="-8.44060018658638" alt="54.559M" type="COMPASS_POINT" frequency="0362.00" range="41681.0M" magvar="2.42" region="EI" ident="OB" name="CORK" /><Ndb lat="55.6730554997921" lon="-6.51166677474976" alt="0.914M" type="H" frequency="0293.00" range="138937.0M" magvar="2.33" region="EG" ident="RN" name="RHINNS OF ISLAY" /><Ndb lat="55.6828583031893" lon="-6.24941110610962" alt="16.459M" type="MH" frequency="0395.00" range="69469.0M" magvar="2.22" region="EG" ident="LAY" name="ISLAY" /><Ndb lat="55.0455138087273" lon="-7.15501382946968" alt="6.705M" type="MH" frequency="0328.50" range="69469.0M" magvar="2.48" region="EG" ident="EGT" name="LONDONDERRY" /><Ndb lat="55.4356307163835" lon="-5.6880721449852" alt="13.411M" type="MH" frequency="0380.00" range="69469.0M" magvar="1.95" region="EG" ident="CBL" name="CAMPBELTOWN" /><Ndb lat="55.9756445512176" lon="-3.97463902831078" alt="106.68M" type="MH" frequency="0374.00" range="69469.0M" magvar="1.34" region="EG" ident="CBN" name="CUMBERNAULD" /><Ndb lat="54.860833324492" lon="-4.94033351540565" alt="38.709M" type="COMPASS_POINT" frequency="0339.00" range="41681.0M" magvar="1.55" region="EG" ident="WFR" name="WEST FREUGH" /><Ndb lat="55.5060889944434" lon="-4.57725271582603" alt="19.812M" type="MH" frequency="0355.00" range="69469.0M" magvar="1.51" region="EG" ident="PIK" name="PRESTWICK" /><Ndb lat="55.1774999499321" lon="-4.16861101984978" alt="208.483M" type="MH" frequency="0399.00" range="69469.0M" magvar="1.29" region="EG" ident="NGY" name="NEW GALLOWAY" /><Ndb lat="54.6926474198699" lon="-6.08535826206207" alt="102.717M" type="COMPASS_POINT" frequency="0332.00" range="41681.0M" magvar="1.98" region="EG" ident="OY" name="BELFAST/ALDERGROVE" /><Ndb lat="54.6154973655939" lon="-5.88194444775581" alt="4.572M" type="MH" frequency="0420.00" range="69469.0M" magvar="1.89" region="EG" ident="HB" name="BELFAST CITY" /><Ndb lat="53.5118612274528" lon="-6.11053347587585" alt="3.657M" type="H" frequency="0326.00" range="138937.0M" magvar="1.8" region="EI" ident="RSH" name="RUSH" /><Ndb lat="53.6481110751629" lon="-6.22666954994202" alt="36.576M" type="MH" frequency="0334.00" range="69469.0M" magvar="1.87" region="EI" ident="GMN" name="GORMANSTON" /><Ndb lat="53.5286944359541" lon="-6.44746407866478" alt="71.018M" type="MH" frequency="0407.00" range="69469.0M" magvar="1.93" region="EI" ident="GAR" name="GARRISTOWN" /><Ndb lat="54.4077777117491" lon="-5.36527767777443" alt="0.0M" type="H" frequency="0291.50" range="138937.0M" magvar="1.65" region="EG" ident="SU" name="SOUTH ROCK" /><Ndb lat="54.1411111503839" lon="-4.49166655540466" alt="103.022M" type="MH" frequency="0366.50" range="69469.0M" magvar="1.27" region="EG" ident="CAR" name="CARNANE" /><Ndb lat="54.0809582546353" lon="-4.62279438972473" alt="16.764M" type="MH" frequency="0359.00" range="69469.0M" magvar="1.31" region="EG" ident="RWY" name="RONALDSWAY" /><Ndb lat="55.9051527455449" lon="-3.50251123309135" alt="135.636M" type="MH" frequency="0368.00" range="69469.0M" magvar="1.13" region="EG" ident="UW" name="EDINBURGH" /><Ndb lat="55.9784001857042" lon="-3.28412219882011" alt="41.148M" type="MH" frequency="0341.00" range="69469.0M" magvar="1.06" region="EG" ident="EDN" name="EDINBURGH" /><Ndb lat="54.9402890726924" lon="-2.80546367168427" alt="57.912M" type="MH" frequency="0328.00" range="69469.0M" magvar="0.72" region="EG" ident="CL" name="CARLISLE" /><Ndb lat="55.0503833591938" lon="-1.64268627762794" alt="81.076M" type="MH" frequency="0352.00" range="69469.0M" magvar="0.28" region="EG" ident="NT" name="NEWCASTLE" /><Ndb lat="54.9705554544926" lon="-1.36333331465721" alt="0.0M" type="H" frequency="0292.00" range="138937.0M" magvar="0.17" region="EG" ident="SJ" name="SOUTER" /><Ndb lat="53.751705698669" lon="-2.85224184393883" alt="16.154M" type="MH" frequency="0337.00" range="69469.0M" magvar="0.58" region="EG" ident="WTN" name="WARTON" /><Ndb lat="54.1255556792021" lon="-3.26166674494743" alt="14.325M" type="MH" frequency="0385.00" range="69469.0M" magvar="0.79" region="EG" ident="WL" name="BARROW (WALNEY ISLAND)" /><Ndb lat="53.772877715528" lon="-3.02785009145737" alt="10.363M" type="COMPASS_POINT" frequency="0420.00" range="41681.0M" magvar="0.65" region="EG" ident="BPL" name="BLACKPOOL" /><Ndb lat="54.0486111491919" lon="-3.17583337426186" alt="5.486M" type="H" frequency="0306.00" range="138937.0M" magvar="0.74" region="EG" ident="FN" name="WALNEY ISLAND" /><Ndb lat="53.4693140164018" lon="-2.38865822553635" alt="22.25M" type="MH" frequency="0325.00" range="69469.0M" magvar="0.37" region="EG" ident="BAE" name="BARTON (MANCHESTER)" /><Ndb lat="54.5605221390724" lon="-1.33363902568817" alt="14.02M" type="MH" frequency="0347.50" range="69469.0M" magvar="0.11" region="EG" ident="TD" name="DURHAM TEES VALLEY" /><Ndb lat="53.47482226789" lon="-1.00172504782677" alt="16.764M" type="H" frequency="0338.00" range="138937.0M" magvar="-0.14" region="EG" ident="FNY" name="DONCASTER SHEFFIELD" /><Ndb lat="53.7894443795085" lon="-1.20833337306976" alt="7.924M" type="MH" frequency="0323.00" range="69469.0M" magvar="-0.03" region="EG" ident="SBL" name="SHERBURN-IN-ELMET" /><Ndb lat="53.8649918138981" lon="-1.65288895368576" alt="207.873M" type="MH" frequency="0402.50" range="69469.0M" magvar="0.15" region="EG" ident="LBA" name="LEEDS BRADFORD" /><Ndb lat="53.72538048774" lon="-0.581483244895935" alt="3.962M" type="MH" frequency="0372.00" range="69469.0M" magvar="-0.26" region="EG" ident="BV" name="BROUGH" /><Ndb lat="53.5738527774811" lon="-0.353594720363617" alt="36.88M" type="MH" frequency="0365.00" range="69469.0M" magvar="-0.36" region="EG" ident="KIM" name="HUMBERSIDE" /><Ndb lat="54.1158333420753" lon="-0.0811108946800232" alt="-0.304M" type="H" frequency="0303.00" range="138937.0M" magvar="-0.41" region="EG" ident="FB" name="FLAMBOROUGH" /><Ndb lat="53.2695611938834" lon="-6.10644444823265" alt="102.717M" type="H" frequency="0378.00" range="138937.0M" magvar="1.76" region="EI" ident="KLY" name="KILLINEY" /><Ndb lat="53.3613889664412" lon="-6.05138897895813" alt="-1.219M" type="H" frequency="0289.00" range="138937.0M" magvar="1.75" region="EI" ident="BY" name="BAILY LT. H." /><Ndb lat="53.4137916192412" lon="-6.13835826516151" alt="0.914M" type="MH" frequency="0397.00" range="69469.0M" magvar="1.79" region="EI" ident="OP" name="DUBLIN" /><Ndb lat="53.4301748871803" lon="-6.42879992723465" alt="70.408M" type="MH" frequency="0316.00" range="69469.0M" magvar="1.91" region="EI" ident="OE" name="DUBLIN" /><Ndb lat="52.4537498876452" lon="-7.48007521033287" alt="162.763M" type="H" frequency="0387.00" range="138937.0M" magvar="2.16" region="EI" ident="CML" name="CLONMEL" /><Ndb lat="52.1890000998974" lon="-7.08334431052208" alt="44.5M" type="COMPASS_POINT" frequency="0368.00" range="41681.0M" magvar="1.97" region="EI" ident="WTD" name="WATERFORD" /><Ndb lat="52.2024999931455" lon="-6.20638892054558" alt="0.0M" type="H" frequency="0286.00" range="138937.0M" magvar="1.63" region="EI" ident="TR" name="TUSKAR ROCK LT. H." /><Ndb lat="53.099999986589" lon="-4.34000015258789" alt="0.304M" type="MH" frequency="0320.00" range="69469.0M" magvar="1.06" region="EG" ident="CAE" name="CAERNARFON" /><Ndb lat="53.4161110594869" lon="-4.28833320736885" alt="-2.133M" type="H" frequency="0304.00" range="138937.0M" magvar="1.08" region="EG" ident="PS" name="POINT LYNAS" /><Ndb lat="52.1164473518729" lon="-4.55961406230927" alt="130.454M" type="MH" frequency="0370.50" range="69469.0M" magvar="1.0" region="EG" ident="AP" name="ABERPORTH" /><Ndb lat="51.8525002151728" lon="-5.41083320975304" alt="0.0M" type="H" frequency="0290.50" range="138937.0M" magvar="1.28" region="EG" ident="SB" name="SOUTH BISHOP" /><Ndb lat="51.8318777158856" lon="-4.96808901429176" alt="48.463M" type="H" frequency="0328.00" range="138937.0M" magvar="1.12" region="EG" ident="HAV" name="HAVERFORDWEST" /><Ndb lat="51.7132804915309" lon="-4.30993616580963" alt="4.572M" type="COMPASS_POINT" frequency="0341.00" range="41681.0M" magvar="0.86" region="EG" ident="PMB" name="PEMBREY" /><Ndb lat="51.6049554571509" lon="-4.07180026173592" alt="91.135M" type="MH" frequency="0320.50" range="69469.0M" magvar="0.76" region="EG" ident="SWN" name="SWANSEA" /><Ndb lat="53.179166726768" lon="-2.97953635454178" alt="32.004M" type="MH" frequency="0340.00" range="69469.0M" magvar="0.56" region="EG" ident="HAW" name="HAWARDEN" /><Ndb lat="53.337658457458" lon="-2.15835839509964" alt="89.916M" type="MH" frequency="0380.00" range="69469.0M" magvar="0.27" region="EG" ident="WFD" name="WOODFORD" /><Ndb lat="53.3533000946045" lon="-2.27302774786949" alt="78.333M" type="MH" frequency="0428.00" range="69469.0M" magvar="0.32" region="EG" ident="MCH" name="MANCHESTER" /><Ndb lat="53.1850001960993" lon="-2.62305557727814" alt="78.943M" type="MH" frequency="0368.50" range="69469.0M" magvar="0.43" region="EG" ident="WHI" name="WHITEGATE" /><Ndb lat="52.8336110338569" lon="-2.76777774095535" alt="83.82M" type="MH" frequency="0382.00" range="69469.0M" magvar="0.44" region="EG" ident="SLP" name="SLEAP" /><Ndb lat="53.3395862951875" lon="-2.72511944174767" alt="30.175M" type="MH" frequency="0349.50" range="69469.0M" magvar="0.48" region="EG" ident="LPL" name="LIVERPOOL" /><Ndb lat="52.6300001889467" lon="-3.15388888120651" alt="71.018M" type="MH" frequency="0323.00" range="69469.0M" magvar="0.55" region="EG" ident="WPL" name="WELSHPOOL" /><Ndb lat="52.2434610128403" lon="-2.87981942296028" alt="96.926M" type="MH" frequency="0426.00" range="69469.0M" magvar="0.41" region="EG" ident="SH" name="SHOBDON" /><Ndb lat="53.3926390483975" lon="-1.38313606381416" alt="70.713M" type="MH" frequency="0333.00" range="69469.0M" magvar="-0.0" region="EG" ident="SMF" name="SHEFFIELD CITY" /><Ndb lat="52.7466665580869" lon="-1.71944439411163" alt="50.596M" type="MH" frequency="0545.00" range="69469.0M" magvar="0.05" region="EG" ident="LIC" name="LICHFIELD" /><Ndb lat="52.8286529704928" lon="-1.45443052053452" alt="72.237M" type="MH" frequency="0393.00" range="69469.0M" magvar="-0.04" region="EG" ident="EMW" name="EAST MIDLANDS (NOTTINGHAM)" /><Ndb lat="52.8326749429107" lon="-1.19455575942993" alt="46.634M" type="MH" frequency="0353.50" range="69469.0M" magvar="-0.13" region="EG" ident="EME" name="EAST MIDLANDS (NOTTINGHAM)" /><Ndb lat="52.8144640848041" lon="-1.76667228341103" alt="129.844M" type="COMPASS_POINT" frequency="0327.00" range="41681.0M" magvar="0.07" region="EG" ident="TNL" name="TATENHILL" /><Ndb lat="52.9216666147113" lon="-1.07944428920746" alt="41.452M" type="MH" frequency="0430.00" range="69469.0M" magvar="-0.17" region="EG" ident="NOT" name="NOTTINGHAM" /><Ndb lat="52.7416501566768" lon="-0.0279414653778076" alt="1.828M" type="HH" frequency="0401.00" range="208406.0M" magvar="-0.55" region="EG" ident="FNL" name="FENLAND" /><Ndb lat="53.0263502150774" lon="-0.489072203636169" alt="87.782M" type="MH" frequency="0423.00" range="69469.0M" magvar="-0.37" region="EG" ident="CWL" name="CRANWELL" /><Ndb lat="52.4545471742749" lon="-1.75238594412804" alt="99.669M" type="MH" frequency="0406.00" range="69469.0M" magvar="0.03" region="EG" ident="BHX" name="BIRMINGHAM" /><Ndb lat="52.6063890382648" lon="-1.03500008583069" alt="142.951M" type="MH" frequency="0383.50" range="69469.0M" magvar="-0.21" region="EG" ident="LE" name="LEICESTER" /><Ndb lat="52.2111360356212" lon="-0.044935941696167" alt="68.884M" type="MH" frequency="0391.50" range="69469.0M" magvar="-0.6" region="EG" ident="BOU" name="BOURN" /><Ndb lat="52.2990917041898" lon="-0.79760268330574" alt="127.711M" type="MH" frequency="0378.50" range="69469.0M" magvar="-0.33" region="EG" ident="NN" name="NORTHAMPTON" /><Ndb lat="51.3933777809143" lon="-3.33790272474289" alt="67.056M" type="MH" frequency="0388.50" range="69469.0M" magvar="0.47" region="EG" ident="CDF" name="CARDIFF" /><Ndb lat="51.4005557075143" lon="-3.55111107230186" alt="34.442M" type="H" frequency="0299.50" range="138937.0M" magvar="0.55" region="EG" ident="NP" name="NASH POINT" /><Ndb lat="51.3814416155219" lon="-2.71754443645477" alt="189.585M" type="MH" frequency="0414.00" range="69469.0M" magvar="0.25" region="EG" ident="BRI" name="BRISTOL" /><Ndb lat="51.8919528275728" lon="-2.1679025888443" alt="30.784M" type="COMPASS_POINT" frequency="0331.00" range="41681.0M" magvar="0.11" region="EG" ident="GST" name="GLOUCESTERSHIRE" /><Ndb lat="51.5082500874996" lon="-2.00604736804962" alt="156.362M" type="H" frequency="0282.00" range="138937.0M" magvar="0.02" region="EG" ident="LA" name="LYNEHAM" /><Ndb lat="51.5218529105186" lon="-2.59023070335388" alt="68.884M" type="MH" frequency="0325.00" range="69469.0M" magvar="0.22" region="EG" ident="OF" name="FILTON" /><Ndb lat="50.75215280056" lon="-3.29504728317261" alt="43.281M" type="COMPASS_POINT" frequency="0337.00" range="41681.0M" magvar="0.38" region="EG" ident="EX" name="EXETER" /><Ndb lat="50.9413390606642" lon="-2.66442507505417" alt="59.131M" type="COMPASS_POINT" frequency="0343.00" range="41681.0M" magvar="0.18" region="EG" ident="YVL" name="YEOVIL" /><Ndb lat="50.9662028029561" lon="-2.15516656637192" alt="247.192M" type="H" frequency="0349.50" range="138937.0M" magvar="0.01" region="EG" ident="COM" name="COMPTON ABBAS" /><Ndb lat="51.853055767715" lon="-0.962499976158142" alt="84.124M" type="MH" frequency="0335.00" range="69469.0M" magvar="-0.31" region="EG" ident="WCO" name="WESTCOTT" /><Ndb lat="51.8324805423617" lon="-1.32323876023293" alt="81.991M" type="MH" frequency="0367.50" range="69469.0M" magvar="-0.19" region="EG" ident="OX" name="OXFORD" /><Ndb lat="51.7492334917188" lon="-1.60161674022675" alt="109.118M" type="MH" frequency="0386.00" range="69469.0M" magvar="-0.1" region="EG" ident="BZ" name="BRIZE NORTON" /><Ndb lat="51.4527779817581" lon="-0.878888815641403" alt="37.185M" type="MH" frequency="0352.00" range="69469.0M" magvar="-0.38" region="EG" ident="WOD" name="WOODLEY" /><Ndb lat="51.7597222700715" lon="-0.790277570486069" alt="128.016M" type="MH" frequency="0433.50" range="69469.0M" magvar="-0.38" region="EG" ident="HEN" name="HENTON" /><Ndb lat="51.6230556741357" lon="-0.518610924482346" alt="52.73M" type="MH" frequency="0277.00" range="69469.0M" magvar="-0.49" region="EG" ident="CHT" name="CHILTERN" /><Ndb lat="51.478886269033" lon="-0.459430664777756" alt="25.298M" type="COMPASS_POINT" frequency="0424.00" range="41681.0M" magvar="-0.52" region="EG" ident="HRW" name="HEATHROW/LONDON" /><Ndb lat="51.3469443842769" lon="-0.563888847827911" alt="24.384M" type="MH" frequency="0348.00" range="69469.0M" magvar="-0.5" region="EG" ident="FOS" name="FAIROAKS" /><Ndb lat="51.5188890695572" lon="-0.677222013473511" alt="23.469M" type="MH" frequency="0421.00" range="69469.0M" magvar="-0.44" region="EG" ident="BUR" name="BURNHAM" /><Ndb lat="50.7776723429561" lon="-1.84248626232147" alt="11.582M" type="MH" frequency="0339.00" range="69469.0M" magvar="-0.12" region="EG" ident="BIA" name="BOURNEMOUTH" /><Ndb lat="50.9550277143717" lon="-1.35611951351166" alt="13.411M" type="COMPASS_POINT" frequency="0391.50" range="41681.0M" magvar="-0.26" region="EG" ident="EAS" name="SOUTHAMPTON (EASTLEIGH)" /><Ndb lat="50.6803001090884" lon="-1.1045640707016" alt="16.154M" type="MH" frequency="0426.00" range="69469.0M" magvar="-0.37" region="EG" ident="IW" name="BEMBRIDGE" /><Ndb lat="51.1306527256966" lon="-0.315955728292465" alt="74.066M" type="MH" frequency="0365.00" range="69469.0M" magvar="-0.6" region="EG" ident="GY" name="GATWICK (LONDON)" /><Ndb lat="51.3194443657994" lon="-0.371944606304169" alt="36.271M" type="MH" frequency="0316.00" range="69469.0M" magvar="-0.56" region="EG" ident="EPM" name="EPSOM" /><Ndb lat="50.8355111628771" lon="-0.295385867357254" alt="2.133M" type="MH" frequency="0332.00" range="69469.0M" magvar="-0.63" region="EG" ident="SHM" name="SHOREHAM" /><Ndb lat="51.3232889771461" lon="-0.844794362783432" alt="100.279M" type="MH" frequency="0328.00" range="69469.0M" magvar="-0.4" region="EG" ident="BLK" name="BLACKBUSHE" /><Ndb lat="51.1644388362765" lon="-0.0691334903240204" alt="58.216M" type="MH" frequency="0338.00" range="69469.0M" magvar="-0.68" region="EG" ident="GE" name="GATWICK (LONDON)" /><Ndb lat="51.2156529352069" lon="-0.138805657625198" alt="67.665M" type="MH" frequency="0343.00" range="69469.0M" magvar="-0.65" region="EG" ident="RDL" name="REDHILL" /><Ndb lat="49.9140999466181" lon="-6.29113063216209" alt="44.5M" type="MH" frequency="0321.00" range="69469.0M" magvar="1.34" region="EG" ident="STM" name="SCILLY ISLES" /><Ndb lat="50.44811937958" lon="-4.99454721808434" alt="140.208M" type="COMPASS_POINT" frequency="0356.50" range="41681.0M" magvar="0.95" region="EG" ident="SM" name="ST MAWGAN" /><Ndb lat="49.9597223103046" lon="-5.20111128687859" alt="-2.133M" type="H" frequency="0284.50" range="138937.0M" magvar="0.96" region="EG" ident="LZ" name="LIZARD" /><Ndb lat="50.1280557364225" lon="-5.51861107349396" alt="4.572M" type="MH" frequency="0333.00" range="69469.0M" magvar="1.09" region="EG" ident="PH" name="PENZANCE HELIPORT" /><Ndb lat="50.4243446141481" lon="-4.11236375570297" alt="147.828M" type="MH" frequency="0396.50" range="69469.0M" magvar="0.63" region="EG" ident="PY" name="PLYMOUTH" /><Ndb lat="48.646694496274" lon="-3.76269444823265" alt="84.429M" type="COMPASS_POINT" frequency="0371.00" range="41681.0M" magvar="0.32" region="LF" ident="MLX" name="MORLAIX" /><Ndb lat="48.4652222692966" lon="-5.06350010633469" alt="42.062M" type="COMPASS_POINT" frequency="0351.00" range="41681.0M" magvar="0.74" region="LF" ident="OSA" name="OUESSANT" /><Ndb lat="48.2836112380028" lon="-4.43222209811211" alt="88.087M" type="H" frequency="0428.00" range="138937.0M" magvar="0.51" region="LF" ident="BST" name="LANVEOC" /><Ndb lat="47.9682776704431" lon="-3.99844452738762" alt="90.525M" type="COMPASS_POINT" frequency="0380.00" range="41681.0M" magvar="0.34" region="LF" ident="RQ" name="QUIMPER" /><Ndb lat="48.4776945412159" lon="-4.28549990057945" alt="95.097M" type="COMPASS_POINT" frequency="0338.00" range="41681.0M" magvar="0.48" region="LF" ident="GU" name="BREST" /><Ndb lat="50.5136112123728" lon="-2.4549999833107" alt="0.0M" type="H" frequency="0313.00" range="138937.0M" magvar="0.07" region="EG" ident="PB" name="BILL OF PORTLAND" /><Ndb lat="49.7088777646422" lon="-2.19970017671585" alt="88.392M" type="COMPASS_POINT" frequency="0383.00" range="41681.0M" magvar="-0.1" region="EG" ident="ALD" name="ALDERNEY" /><Ndb lat="49.6380000561476" lon="-1.37230575084686" alt="139.903M" type="COMPASS_POINT" frequency="0373.00" range="41681.0M" magvar="-0.38" region="LF" ident="MP" name="CHERBOURG" /><Ndb lat="48.719277754426" lon="-3.30777749419212" alt="89.001M" type="COMPASS_POINT" frequency="0345.00" range="41681.0M" magvar="0.18" region="LF" ident="LN" name="LANNION" /><Ndb lat="49.2059139534831" lon="-2.21992492675781" alt="105.765M" type="MH" frequency="0329.00" range="69469.0M" magvar="-0.14" region="EG" ident="JW" name="JERSEY" /><Ndb lat="48.5675277560949" lon="-2.78244450688362" alt="137.769M" type="COMPASS_POINT" frequency="0353.00" range="41681.0M" magvar="-0.01" region="LF" ident="SB" name="SAINT BRIEUC" /><Ndb lat="48.1601390987635" lon="-3.60244452953339" alt="55.778M" type="COMPASS_POINT" frequency="0395.00" range="41681.0M" magvar="0.22" region="LF" ident="GSG" name="GUISCRIFF" /><Ndb lat="48.4820001572371" lon="-2.05288901925087" alt="64.312M" type="COMPASS_POINT" frequency="0390.00" range="41681.0M" magvar="-0.25" region="LF" ident="DR" name="DINARD" /><Ndb lat="48.051027841866" lon="-2.79452785849571" alt="124.053M" type="COMPASS_POINT" frequency="0377.00" range="41681.0M" magvar="-0.05" region="LF" ident="PNT" name="PONTIVY" /><Ndb lat="48.9170279726386" lon="-1.48244440555573" alt="13.411M" type="COMPASS_POINT" frequency="0321.00" range="41681.0M" magvar="-0.4" region="LF" ident="GV" name="GRANVILLE" /><Ndb lat="49.1156666725874" lon="-0.321249961853027" alt="74.371M" type="COMPASS_POINT" frequency="0404.00" range="41681.0M" magvar="-0.75" region="LF" ident="CNE" name="CAEN" /><Ndb lat="48.0531390756369" lon="-1.58447206020355" alt="37.795M" type="COMPASS_POINT" frequency="0349.00" range="41681.0M" magvar="-0.43" region="LF" ident="RS" name="RENNES" /><Ndb lat="47.975944429636" lon="-0.679111182689667" alt="99.974M" type="COMPASS_POINT" frequency="0401.00" range="41681.0M" magvar="-0.72" region="LF" ident="LA" name="LAVAL" /><Ndb lat="47.7986111864448" lon="-4.37361091375351" alt="4.267M" type="H" frequency="0289.60" range="138937.0M" magvar="0.45" region="LF" ident="UH" name="ECKMUHL" /><Ndb lat="47.7631946280599" lon="-3.44069436192513" alt="56.997M" type="H" frequency="0359.00" range="138937.0M" magvar="0.14" region="LF" ident="LOR" name="LORIENT" /><Ndb lat="47.3337501659989" lon="-2.04449996352196" alt="3.962M" type="COMPASS_POINT" frequency="0398.00" range="41681.0M" magvar="-0.34" region="LF" ident="MT" name="SAINT NAZAIRE" /><Ndb lat="47.7694166824222" lon="-2.66155555844307" alt="135.94M" type="COMPASS_POINT" frequency="0342.00" range="41681.0M" magvar="-0.11" region="LF" ident="VA" name="VANNES" /><Ndb lat="47.5772501528263" lon="-0.151444673538208" alt="59.131M" type="COMPASS_POINT" frequency="0392.00" range="41681.0M" magvar="-0.9" region="LF" ident="AS" name="ANGERS" /><Ndb lat="47.2594999149442" lon="-0.114360898733139" alt="81.991M" type="COMPASS_POINT" frequency="0372.00" range="41681.0M" magvar="-0.93" region="LF" ident="SR" name="SAUMUR" /><Ndb lat="47.1363888680935" lon="-0.836111158132553" alt="135.026M" type="COMPASS_POINT" frequency="0357.00" range="41681.0M" magvar="-0.72" region="LF" ident="LP" name="CHOLET" /><Ndb lat="46.6891110688448" lon="-1.28630563616753" alt="91.135M" type="COMPASS_POINT" frequency="0334.00" range="41681.0M" magvar="-0.62" region="LF" ident="YN" name="LA ROCHE-SUR-YON" /><Ndb lat="47.0528055354953" lon="-1.68783321976662" alt="27.127M" type="H" frequency="0369.00" range="138937.0M" magvar="-0.47" region="LF" ident="GL" name="NANTES" /><Ndb lat="46.1763612180948" lon="-1.09902799129486" alt="21.945M" type="COMPASS_POINT" frequency="0322.00" range="41681.0M" magvar="-0.7" region="LF" ident="RL" name="LA ROCHELLE" /><Ndb lat="45.8884166926146" lon="-0.986250042915344" alt="17.068M" type="COMPASS_POINT" frequency="0396.00" range="41681.0M" magvar="-0.75" region="LF" ident="ROC" name="ROCHEFORT" /><Ndb lat="46.3405834883451" lon="-0.300166457891464" alt="60.96M" type="COMPASS_POINT" frequency="0329.00" range="41681.0M" magvar="-0.93" region="LF" ident="NS" name="NIORT" /><Ndb lat="45.740611217916" lon="-0.161083191633224" alt="31.089M" type="COMPASS_POINT" frequency="0346.00" range="41681.0M" magvar="-1.0" region="LF" ident="OC" name="COGNAC" /><Ndb lat="45.6692778691649" lon="-0.306194722652435" alt="49.682M" type="HH" frequency="0354.00" range="208406.0M" magvar="-0.96" region="LF" ident="CGC" name="COGNAC" /><Ndb lat="45.147500038147" lon="-0.5499167740345" alt="50.596M" type="COMPASS_POINT" frequency="0361.00" range="41681.0M" magvar="-0.91" region="LF" ident="NB" name="BORDEAUX" /><Ndb lat="45.6158888339996" lon="-0.866777747869492" alt="21.945M" type="COMPASS_POINT" frequency="0427.00" range="41681.0M" magvar="-0.8" region="LF" ident="RY" name="ROYAN" /></FSData>