<FSData version="9.0"><Vor dme="TRUE" dmeOnly="FALSE" lat="20.9380470961332" lon="-89.6562221646309" alt="9.144M" type="HIGH" frequency="117.700" range="361237.0M" magvar="0.77" region="MM" ident="MID" name="MERIDA"><Dme lat="20.9380470961332" lon="-89.6562221646309" alt="9.144M" range="361237.0M" /></Vor><Vor dme="TRUE" dmeOnly="FALSE" lat="20.6430584192276" lon="-88.4482303261757" alt="31.089M" type="HIGH" frequency="116.500" range="361237.0M" magvar="1.44" region="MM" ident="CZA" name="KAUA"><Dme lat="20.6430584192276" lon="-88.4482303261757" alt="31.089M" range="361237.0M" /></Vor><Vor dme="TRUE" dmeOnly="FALSE" lat="20.5220639705658" lon="-86.9292779266834" alt="4.572M" type="HIGH" frequency="112.600" range="361237.0M" magvar="2.32" region="MM" ident="CZM" name="COZUMEL"><Dme lat="20.5220639705658" lon="-86.9292779266834" alt="4.572M" range="361237.0M" /></Vor><Vor dme="TRUE" dmeOnly="FALSE" lat="21.0249999538064" lon="-86.8586111068726" alt="6.705M" type="HIGH" frequency="113.600" range="361237.0M" magvar="2.43" region="MM" ident="CUN" name="CANCUN"><Dme lat="21.0249999538064" lon="-86.8586111068726" alt="6.705M" range="361237.0M" /></Vor><Vor dme="TRUE" dmeOnly="FALSE" lat="18.509166687727" lon="-88.3336110413074" alt="11.887M" type="HIGH" frequency="116.300" range="361237.0M" magvar="1.25" region="MM" ident="CTM" name="CHETUMAL"><Dme lat="18.509166687727" lon="-88.3336110413074" alt="11.887M" range="361237.0M" /></Vor><Vor dme="TRUE" dmeOnly="FALSE" lat="16.9190388545394" lon="-89.8765276372433" alt="128.016M" type="HIGH" frequency="113.300" range="361237.0M" magvar="0.18" region="MG" ident="TIK" name="TIKAL"><Dme lat="16.9190388545394" lon="-89.8765276372433" alt="128.016M" range="361237.0M" /></Vor><Vor dme="TRUE" dmeOnly="FALSE" lat="17.5401110574603" lon="-88.3154502511024" alt="9.144M" type="HIGH" frequency="114.300" range="361237.0M" magvar="1.14" region="MZ" ident="BZE" name="BELIZE"><Dme lat="17.5401110574603" lon="-88.3154502511024" alt="9.144M" range="361237.0M" /></Vor><Vor dme="TRUE" dmeOnly="FALSE" lat="21.6050192713737" lon="-81.5326970815659" alt="30.48M" type="HIGH" frequency="112.100" range="361237.0M" magvar="5.73" region="MU" ident="UCL" name="CAYO LARGO DEL SUR"><Dme lat="21.6050192713737" lon="-81.5326970815659" alt="30.48M" range="361237.0M" /></Vor><Vor dme="TRUE" dmeOnly="FALSE" lat="22.1546776592731" lon="-80.4060584306717" alt="30.48M" type="HIGH" frequency="112.300" range="361237.0M" magvar="6.49" region="MU" ident="UCF" name="CIENFUEGOS"><Dme lat="22.1546776592731" lon="-80.4060584306717" alt="30.48M" range="361237.0M" /></Vor><Vor dme="TRUE" dmeOnly="FALSE" lat="22.0150636509061" lon="-78.8158169388771" alt="106.68M" type="HIGH" frequency="117.400" range="361237.0M" magvar="7.41" region="MU" ident="UCA" name="CIEGO DE AVILA"><Dme lat="22.0150636509061" lon="-78.8158169388771" alt="106.68M" range="361237.0M" /></Vor><Vor dme="TRUE" dmeOnly="FALSE" lat="22.4674111604691" lon="-78.3119666576386" alt="3.962M" type="HIGH" frequency="117.800" range="361237.0M" magvar="7.76" region="MU" ident="UCJ" name="JARDINES DEL REY (CAYO COCO)"><Dme lat="22.4674111604691" lon="-78.3119666576386" alt="3.962M" range="361237.0M" /></Vor><Vor dme="FALSE" dmeOnly="FALSE" lat="21.3972221687436" lon="-77.2286112606525" alt="12.496M" type="HIGH" frequency="116.300" range="361237.0M" magvar="8.25" region="MU" ident="UNV" name="NUEVAS" /><Vor dme="TRUE" dmeOnly="FALSE" lat="21.4374361932278" lon="-77.8008359670639" alt="128.016M" type="HIGH" frequency="114.100" range="361237.0M" magvar="7.93" region="MU" ident="UCM" name="CAMAGUEY"><Dme lat="21.4374361932278" lon="-77.8008359670639" alt="128.016M" range="361237.0M" /></Vor><Vor dme="TRUE" dmeOnly="FALSE" lat="20.3027917072177" lon="-77.0994445681572" alt="34.137M" type="HIGH" frequency="116.000" range="361237.0M" magvar="8.19" region="MU" ident="UMZ" name="MANZANILLO"><Dme lat="20.3027917072177" lon="-77.0994445681572" alt="34.137M" range="361237.0M" /></Vor><Vor dme="TRUE" dmeOnly="FALSE" lat="20.7981055229902" lon="-76.302997469902" alt="109.728M" type="HIGH" frequency="116.800" range="361237.0M" magvar="8.7" region="MU" ident="UHG" name="HOLGUIN"><Dme lat="20.7981055229902" lon="-76.302997469902" alt="109.728M" range="361237.0M" /></Vor><Vor dme="TRUE" dmeOnly="FALSE" lat="19.9777998402715" lon="-75.8226554095745" alt="60.96M" type="HIGH" frequency="113.300" range="361237.0M" magvar="8.87" region="MU" ident="UCU" name="SANTIAGO DE CUBA"><Dme lat="19.9777998402715" lon="-75.8226554095745" alt="60.96M" range="361237.0M" /></Vor><Vor dme="TRUE" dmeOnly="FALSE" lat="19.9051666259766" lon="-75.198500007391" alt="26.517M" type="HIGH" frequency="114.600" range="361237.0M" magvar="9.21" region="MU" ident="NBW" name="NAVY GUANTANAMO BAY"><Dme lat="19.9094444140792" lon="-75.2183336019516" alt="34.137M" range="361237.0M" /></Vor><Vor dme="TRUE" dmeOnly="FALSE" lat="19.2893944680691" lon="-81.3720332086086" alt="2.438M" type="HIGH" frequency="115.600" range="361237.0M" magvar="5.52" region="MW" ident="GCM" name="GRAND CAYMAN"><Dme lat="19.2893944680691" lon="-81.3720332086086" alt="2.438M" range="361237.0M" /></Vor><Vor dme="TRUE" dmeOnly="FALSE" lat="18.5003331676126" lon="-77.92386084795" alt="3.048M" type="HIGH" frequency="115.700" range="361237.0M" magvar="7.47" region="MK" ident="SIA" name="SANGSTER"><Dme lat="18.5003331676126" lon="-77.92386084795" alt="3.048M" range="361237.0M" /></Vor><Vor dme="TRUE" dmeOnly="FALSE" lat="17.9302470758557" lon="-76.7776277661324" alt="9.144M" type="HIGH" frequency="115.500" range="361237.0M" magvar="8.07" region="MK" ident="MLY" name="MANLEY (KINGSTON)"><Dme lat="17.9302470758557" lon="-76.7776277661324" alt="9.144M" range="361237.0M" /></Vor><Vor dme="TRUE" dmeOnly="FALSE" lat="15.7367637008429" lon="-88.5887418687344" alt="10.058M" type="HIGH" frequency="115.100" range="361237.0M" magvar="0.74" region="MG" ident="IOS" name="PUERTO BARRIOS"><Dme lat="15.7367637008429" lon="-88.5887418687344" alt="10.058M" range="361237.0M" /></Vor><Vor dme="TRUE" dmeOnly="FALSE" lat="16.3165553659201" lon="-86.5217779576778" alt="3.657M" type="HIGH" frequency="113.800" range="361237.0M" magvar="2.01" region="MH" ident="ROA" name="ROATAN"><Dme lat="16.3165553659201" lon="-86.5217779576778" alt="3.657M" range="361237.0M" /></Vor><Vor dme="TRUE" dmeOnly="FALSE" lat="15.4698275774717" lon="-87.9085193574429" alt="26.822M" type="TERMINAL" frequency="113.100" range="69469.0M" magvar="1.09" region="MH" ident="LMS" name="LA MESA (SAN PEDRO SULA)"><Dme lat="15.4698275774717" lon="-87.9085193574429" alt="26.822M" range="69469.0M" /></Vor><Vor dme="TRUE" dmeOnly="FALSE" lat="15.7367583364248" lon="-86.8639692664146" alt="15.544M" type="HIGH" frequency="113.500" range="361237.0M" magvar="1.73" region="MH" ident="BTO" name="BONITO"><Dme lat="15.7367583364248" lon="-86.8639692664146" alt="15.544M" range="361237.0M" /></Vor><Vor dme="TRUE" dmeOnly="TRUE" lat="15.7382831722498" lon="-86.8906527757645" alt="9.144M" type="HIGH" frequency="111.700" range="361237.0M" magvar="1.71" region="MH" ident="LCE" name="LA CEIBA"><Dme lat="15.7382831722498" lon="-86.8906527757645" alt="9.144M" range="361237.0M" /></Vor><Vor dme="TRUE" dmeOnly="FALSE" lat="14.391999989748" lon="-87.6221667230129" alt="628.192M" type="HIGH" frequency="114.900" range="361237.0M" magvar="1.1" region="MH" ident="ESC" name="SOTO CANO (PALMEROLA)"><Dme lat="14.391999989748" lon="-87.6221667230129" alt="628.192M" range="361237.0M" /></Vor><Vor dme="TRUE" dmeOnly="FALSE" lat="13.6900276690722" lon="-89.1163332760334" alt="625.449M" type="HIGH" frequency="116.500" range="361237.0M" magvar="0.17" region="MS" ident="YSV" name="ILOPANGO (SAN SALVADOR)"><Dme lat="13.6900276690722" lon="-89.1163332760334" alt="625.449M" range="361237.0M" /></Vor><Vor dme="TRUE" dmeOnly="FALSE" lat="13.4414998814464" lon="-89.0477223694324" alt="33.528M" type="HIGH" frequency="117.500" range="361237.0M" magvar="0.17" region="MS" ident="CAT" name="EL SALVADOR (SAN SALVADOR)"><Dme lat="13.4414998814464" lon="-89.0477223694324" alt="33.528M" range="361237.0M" /></Vor><Vor dme="TRUE" dmeOnly="FALSE" lat="14.0287832915783" lon="-87.2291502356529" alt="1219.2M" type="HIGH" frequency="112.300" range="361237.0M" magvar="1.27" region="MH" ident="TNT" name="TONCONTIN (TEGUCIGALPA)"><Dme lat="14.0287832915783" lon="-87.2291502356529" alt="1219.2M" range="361237.0M" /></Vor><Vor dme="TRUE" dmeOnly="FALSE" lat="14.0444443747401" lon="-83.3875000476837" alt="14.935M" type="HIGH" frequency="112.900" range="361237.0M" magvar="3.53" region="MN" ident="PZA" name="PUERTO CABEZAS"><Dme lat="14.0444443747401" lon="-83.3875000476837" alt="14.935M" range="361237.0M" /></Vor><Vor dme="TRUE" dmeOnly="FALSE" lat="12.1397138759494" lon="-86.1742083728313" alt="59.131M" type="TERMINAL" frequency="112.100" range="69469.0M" magvar="1.59" region="MN" ident="MGA" name="MANAGUA"><Dme lat="12.1397138759494" lon="-86.1742083728313" alt="59.131M" range="69469.0M" /></Vor><Vor dme="TRUE" dmeOnly="FALSE" lat="11.992027759552" lon="-83.772499859333" alt="0.304M" type="HIGH" frequency="116.700" range="361237.0M" magvar="2.99" region="MN" ident="BLU" name="BLUEFIELDS"><Dme lat="11.992027759552" lon="-83.772499859333" alt="0.304M" range="361237.0M" /></Vor><Vor dme="TRUE" dmeOnly="FALSE" lat="12.5824999809265" lon="-81.7049999535084" alt="55.473M" type="HIGH" frequency="113.300" range="361237.0M" magvar="4.34" region="SK" ident="SPP" name="SAN ANDRES"><Dme lat="12.5824999809265" lon="-81.7049999535084" alt="55.473M" range="361237.0M" /></Vor><Vor dme="TRUE" dmeOnly="FALSE" lat="21.7722110822797" lon="-72.2660194337368" alt="11.277M" type="HIGH" frequency="115.600" range="361237.0M" magvar="10.95" region="MB" ident="PVN" name="PROVIDENCIALES"><Dme lat="21.7722110822797" lon="-72.2660194337368" alt="11.277M" range="361237.0M" /></Vor><Vor dme="FALSE" dmeOnly="FALSE" lat="19.7272221744061" lon="-72.1972221136093" alt="4.876M" type="HIGH" frequency="113.900" range="361237.0M" magvar="10.79" region="MT" ident="HCN" name="CAP HAITIEN" /><Vor dme="TRUE" dmeOnly="FALSE" lat="21.4406581968069" lon="-71.1343668401241" alt="3.962M" type="HIGH" frequency="114.200" range="361237.0M" magvar="11.46" region="MB" ident="GTK" name="GRAND TURK"><Dme lat="21.4406581968069" lon="-71.1343668401241" alt="3.962M" range="361237.0M" /></Vor><Vor dme="TRUE" dmeOnly="FALSE" lat="19.7591666132212" lon="-70.5705553293228" alt="11.582M" type="HIGH" frequency="115.100" range="361237.0M" magvar="11.59" region="MD" ident="PTA" name="PUERTO PLATA"><Dme lat="19.7591666132212" lon="-70.5705553293228" alt="11.582M" range="361237.0M" /></Vor><Vor dme="TRUE" dmeOnly="FALSE" lat="18.4372221305966" lon="-72.2747223079205" alt="1940.052M" type="HIGH" frequency="113.200" range="361237.0M" magvar="10.62" region="MT" ident="OBN" name="OBLEON"><Dme lat="18.4372221305966" lon="-72.2747223079205" alt="1940.052M" range="361237.0M" /></Vor><Vor dme="TRUE" dmeOnly="FALSE" lat="18.5758333280683" lon="-72.3027777671814" alt="33.223M" type="HIGH" frequency="115.300" range="361237.0M" magvar="10.62" region="MT" ident="PAP" name="PORT AU PRINCE"><Dme lat="18.5758333280683" lon="-72.3027777671814" alt="33.223M" range="361237.0M" /></Vor><Vor dme="TRUE" dmeOnly="FALSE" lat="17.9316666349769" lon="-71.6494444012642" alt="3.048M" type="HIGH" frequency="114.300" range="361237.0M" magvar="10.9" region="MD" ident="CRO" name="CABO ROJO"><Dme lat="17.9316666349769" lon="-71.6494444012642" alt="3.048M" range="361237.0M" /></Vor><Vor dme="TRUE" dmeOnly="FALSE" lat="19.4073164463043" lon="-70.6038053333759" alt="176.784M" type="TERMINAL" frequency="114.900" range="69469.0M" magvar="11.54" region="MD" ident="SGO" name="SANTIAGO"><Dme lat="19.4073164463043" lon="-70.6038053333759" alt="176.784M" range="69469.0M" /></Vor><Vor dme="TRUE" dmeOnly="FALSE" lat="18.4329332783818" lon="-69.6673277020454" alt="23.469M" type="HIGH" frequency="114.700" range="361237.0M" magvar="11.92" region="MD" ident="CDO" name="PUNTA CAUCEDO (SANTO DOMINGO)"><Dme lat="18.4329332783818" lon="-69.6673277020454" alt="23.469M" range="361237.0M" /></Vor><Vor dme="TRUE" dmeOnly="FALSE" lat="18.4522331133485" lon="-68.9123529195786" alt="78.943M" type="HIGH" frequency="116.200" range="361237.0M" magvar="12.27" region="MD" ident="LRN" name="LA ROMANA"><Dme lat="18.4522331133485" lon="-68.9123529195786" alt="78.943M" range="361237.0M" /></Vor><Vor dme="TRUE" dmeOnly="FALSE" lat="18.5672583058476" lon="-68.3833140134811" alt="12.192M" type="TERMINAL" frequency="112.700" range="69469.0M" magvar="12.51" region="MD" ident="PNA" name="PUNTA CANA (HIGUEY)"><Dme lat="18.5672583058476" lon="-68.3833140134811" alt="12.192M" range="69469.0M" /></Vor><Vor dme="TRUE" dmeOnly="FALSE" lat="18.2544916123152" lon="-71.1301803588867" alt="10.363M" type="HIGH" frequency="112.000" range="361237.0M" magvar="11.19" region="MD" ident="BHO" name="BARAHONA"><Dme lat="18.2544916123152" lon="-71.1301803588867" alt="10.363M" range="361237.0M" /></Vor><Vor dme="TRUE" dmeOnly="FALSE" lat="18.4980026632547" lon="-67.1083500981331" alt="65.227M" type="HIGH" frequency="113.500" range="361237.0M" magvar="13.05" region="TJ" ident="BQN" name="BORINQUEN"><Dme lat="18.4980026632547" lon="-67.1083500981331" alt="65.227M" range="361237.0M" /></Vor><Vor dme="TRUE" dmeOnly="FALSE" lat="18.4462833032012" lon="-65.9895054996014" alt="2.133M" type="HIGH" frequency="114.000" range="361237.0M" magvar="13.5" region="TJ" ident="SJU" name="SAN JUAN"><Dme lat="18.4462833032012" lon="-65.9895054996014" alt="2.133M" range="361237.0M" /></Vor><Vor dme="TRUE" dmeOnly="FALSE" lat="18.3558194339275" lon="-65.024561136961" alt="206.959M" type="LOW" frequency="108.600" range="111150.0M" magvar="13.86" region="TI" ident="STT" name="SAINT THOMAS"><Dme lat="18.3558194339275" lon="-65.024561136961" alt="206.959M" range="111150.0M" /></Vor><Vor dme="TRUE" dmeOnly="FALSE" lat="18.2564526423812" lon="-67.1510414779186" alt="5.486M" type="LOW" frequency="110.600" range="111150.0M" magvar="13.03" region="TJ" ident="MAZ" name="MAYAGUEZ"><Dme lat="18.2564526423812" lon="-67.1510414779186" alt="5.486M" range="111150.0M" /></Vor><Vor dme="TRUE" dmeOnly="FALSE" lat="17.9924528673291" lon="-66.5191751718521" alt="4.876M" type="LOW" frequency="109.000" range="111150.0M" magvar="13.28" region="TJ" ident="PSE" name="PONCE"><Dme lat="17.9924528673291" lon="-66.5191751718521" alt="4.876M" range="111150.0M" /></Vor><Vor dme="TRUE" dmeOnly="FALSE" lat="17.7344444766641" lon="-64.7007250785828" alt="259.08M" type="LOW" frequency="108.200" range="111150.0M" magvar="13.97" region="TI" ident="COY" name="SAINT CROIX"><Dme lat="17.7344444766641" lon="-64.7007250785828" alt="259.08M" range="111150.0M" /></Vor><Vor dme="TRUE" dmeOnly="FALSE" lat="18.0381164699793" lon="-63.1182776391506" alt="4.572M" type="HIGH" frequency="113.000" range="361237.0M" magvar="14.51" region="TN" ident="PJM" name="SAINT MAARTEN"><Dme lat="18.0381164699793" lon="-63.1182776391506" alt="4.572M" range="361237.0M" /></Vor><Vor dme="TRUE" dmeOnly="TRUE" lat="17.306463830173" lon="-62.7278445661068" alt="51.816M" type="HIGH" frequency="112.000" range="361237.0M" magvar="14.65" region="TK" ident="SKB" name="ROBERT L BRADSHAW (ST KITTS)"><Dme lat="17.306463830173" lon="-62.7278445661068" alt="51.816M" range="361237.0M" /></Vor><Vor dme="TRUE" dmeOnly="FALSE" lat="17.125877737999" lon="-61.8001668155193" alt="121.92M" type="HIGH" frequency="114.500" range="361237.0M" magvar="14.94" region="TA" ident="ANU" name="V.C. BIRD (SAINT JOHNS)"><Dme lat="17.125877737999" lon="-61.8001668155193" alt="121.92M" range="361237.0M" /></Vor><Vor dme="TRUE" dmeOnly="FALSE" lat="11.5275000035763" lon="-72.9174998402596" alt="13.106M" type="HIGH" frequency="117.100" range="361237.0M" magvar="9.59" region="SK" ident="RHC" name="RIOHACHA"><Dme lat="11.5275000035763" lon="-72.9174998402596" alt="13.106M" range="361237.0M" /></Vor><Vor dme="TRUE" dmeOnly="FALSE" lat="12.5056778267026" lon="-69.9430999159813" alt="197.205M" type="HIGH" frequency="112.500" range="361237.0M" magvar="11.37" region="TN" ident="ABA" name="ARUBA"><Dme lat="12.5056778267026" lon="-69.9430999159813" alt="197.205M" range="361237.0M" /></Vor><Vor dme="TRUE" dmeOnly="FALSE" lat="12.5016166269779" lon="-70.0207749009132" alt="12.192M" type="HIGH" frequency="113.800" range="361237.0M" magvar="11.32" region="TN" ident="BEA" name="BEATRIX (ARUBA)"><Dme lat="12.5016166269779" lon="-70.0207749009132" alt="12.192M" range="361237.0M" /></Vor><Vor dme="TRUE" dmeOnly="FALSE" lat="11.7836516350508" lon="-70.132901519537" alt="22.86M" type="HIGH" frequency="113.600" range="361237.0M" magvar="11.21" region="SV" ident="PRG" name="PARAGUANA (PUNTO FIJO)"><Dme lat="11.7836516350508" lon="-70.132901519537" alt="22.86M" range="361237.0M" /></Vor><Vor dme="TRUE" dmeOnly="FALSE" lat="11.4144442230463" lon="-69.6919445693493" alt="15.24M" type="HIGH" frequency="117.300" range="361237.0M" magvar="11.43" region="SV" ident="CRO" name="CORO"><Dme lat="11.4144442230463" lon="-69.6919445693493" alt="15.24M" range="361237.0M" /></Vor><Vor dme="TRUE" dmeOnly="FALSE" lat="12.1970692276955" lon="-69.0118946135044" alt="76.2M" type="HIGH" frequency="116.700" range="361237.0M" magvar="11.85" region="TN" ident="PJG" name="CURACAO"><Dme lat="12.1970692276955" lon="-69.0118946135044" alt="76.2M" range="361237.0M" /></Vor><Vor dme="TRUE" dmeOnly="FALSE" lat="16.2651944160461" lon="-61.5401391685009" alt="10.972M" type="HIGH" frequency="112.900" range="361237.0M" magvar="15.05" region="TF" ident="PPR" name="POINTE A PITRE"><Dme lat="16.2651944160461" lon="-61.5401391685009" alt="10.972M" range="361237.0M" /></Vor><Vor dme="TRUE" dmeOnly="FALSE" lat="14.5907500013709" lon="-61.0228054225445" alt="3.962M" type="HIGH" frequency="113.300" range="361237.0M" magvar="15.28" region="TF" ident="FOF" name="FORT DE FRANCE"><Dme lat="14.5907500013709" lon="-61.0228054225445" alt="3.962M" range="361237.0M" /></Vor><Vor dme="TRUE" dmeOnly="FALSE" lat="11.9480961933732" lon="-66.6690127551556" alt="3.048M" type="HIGH" frequency="113.100" range="361237.0M" magvar="13.03" region="SV" ident="LRS" name="GRAN ROQUE"><Dme lat="11.9480961933732" lon="-66.6690127551556" alt="3.048M" range="361237.0M" /></Vor><Vor dme="TRUE" dmeOnly="FALSE" lat="13.7333694845438" lon="-60.9770581126213" alt="3.352M" type="HIGH" frequency="112.400" range="361237.0M" magvar="15.33" region="TL" ident="BNE" name="HEWANORRA (SAINT LUCIA)"><Dme lat="13.7333694845438" lon="-60.9770581126213" alt="3.352M" range="361237.0M" /></Vor><Vor dme="TRUE" dmeOnly="TRUE" lat="13.1406331434846" lon="-61.2261664867401" alt="20.116M" type="HIGH" frequency="108.400" range="361237.0M" magvar="15.28" region="TV" ident="SV" name="E.T. JOSHUA (SAINT VINCENT I)"><Dme lat="13.1406331434846" lon="-61.2261664867401" alt="20.116M" range="361237.0M" /></Vor><Vor dme="TRUE" dmeOnly="FALSE" lat="12.001716569066" lon="-61.785364151001" alt="12.192M" type="HIGH" frequency="117.100" range="361237.0M" magvar="15.13" region="TG" ident="GND" name="POINT SALINES (SAINT GEORGE'S)"><Dme lat="12.001716569066" lon="-61.785364151001" alt="12.192M" range="361237.0M" /></Vor><Vor dme="TRUE" dmeOnly="FALSE" lat="10.5933332070708" lon="-85.5466666817665" alt="70.104M" type="HIGH" frequency="112.800" range="361237.0M" magvar="1.71" region="MR" ident="LIB" name="LIBERIA"><Dme lat="10.5933332070708" lon="-85.5466666817665" alt="70.104M" range="361237.0M" /></Vor><Vor dme="TRUE" dmeOnly="FALSE" lat="9.98372778296471" lon="-84.2362390458584" alt="1066.8M" type="HIGH" frequency="115.700" range="361237.0M" magvar="2.39" region="MR" ident="TIO" name="EL COCO (SAN JOSE)"><Dme lat="9.98372778296471" lon="-84.2362390458584" alt="1066.8M" range="361237.0M" /></Vor><Vor dme="TRUE" dmeOnly="FALSE" lat="9.95999995619059" lon="-83.0266664922237" alt="6.096M" type="HIGH" frequency="116.300" range="361237.0M" magvar="3.12" region="MR" ident="LIO" name="LIMON"><Dme lat="9.95999995619059" lon="-83.0266664922237" alt="6.096M" range="361237.0M" /></Vor><Vor dme="TRUE" dmeOnly="FALSE" lat="9.33884996920824" lon="-82.2517611086369" alt="3.048M" type="HIGH" frequency="114.900" range="361237.0M" magvar="3.49" region="MP" ident="BDT" name="BOCAS DEL TORO"><Dme lat="9.33884996920824" lon="-82.2517611086369" alt="3.048M" range="361237.0M" /></Vor><Vor dme="TRUE" dmeOnly="FALSE" lat="9.3624222278595" lon="-79.8656415939331" alt="7.62M" type="HIGH" frequency="109.000" range="361237.0M" magvar="4.99" region="MP" ident="FNC" name="FRANCE (COLON)"><Dme lat="9.3624222278595" lon="-79.8656415939331" alt="7.62M" range="361237.0M" /></Vor><Vor dme="TRUE" dmeOnly="FALSE" lat="9.05156090855598" lon="-79.40005838871" alt="41.148M" type="HIGH" frequency="117.100" range="361237.0M" magvar="5.24" region="MP" ident="TUM" name="TOCUMEN (PANAMA CITY)"><Dme lat="9.05156090855598" lon="-79.40005838871" alt="41.148M" range="361237.0M" /></Vor><Vor dme="TRUE" dmeOnly="FALSE" lat="8.7875721976161" lon="-79.5620222389698" alt="285.902M" type="HIGH" frequency="110.000" range="361237.0M" magvar="5.1" region="MP" ident="TBG" name="TABOGA ISLAND"><Dme lat="8.7875721976161" lon="-79.5620222389698" alt="285.902M" range="361237.0M" /></Vor><Vor dme="TRUE" dmeOnly="FALSE" lat="10.209166444838" lon="-75.5066666007042" alt="91.44M" type="HIGH" frequency="112.300" range="361237.0M" magvar="7.87" region="SK" ident="CTG" name="CARTAGENA"><Dme lat="10.209166444838" lon="-75.5066666007042" alt="91.44M" range="361237.0M" /></Vor><Vor dme="TRUE" dmeOnly="FALSE" lat="8.81555534899235" lon="-75.8177778124809" alt="10.972M" type="HIGH" frequency="114.400" range="361237.0M" magvar="7.5" region="SK" ident="MTR" name="MONTERIA"><Dme lat="8.81555534899235" lon="-75.8177778124809" alt="10.972M" range="361237.0M" /></Vor><Vor dme="TRUE" dmeOnly="FALSE" lat="8.38524151593447" lon="-82.4376721680164" alt="27.127M" type="HIGH" frequency="114.300" range="361237.0M" magvar="3.22" region="MP" ident="DAV" name="DAVID"><Dme lat="8.38524151593447" lon="-82.4376721680164" alt="27.127M" range="361237.0M" /></Vor><Vor dme="FALSE" dmeOnly="FALSE" lat="8.08902204036713" lon="-80.9397223591805" alt="83.82M" type="HIGH" frequency="114.500" range="361237.0M" magvar="4.11" region="MP" ident="STG" name="SANTIAGO" /><Vor dme="FALSE" dmeOnly="FALSE" lat="8.40621940791607" lon="-78.1385779380798" alt="10.058M" type="HIGH" frequency="113.100" range="361237.0M" magvar="5.95" region="MP" ident="PML" name="LA PALMA" /><Vor dme="TRUE" dmeOnly="FALSE" lat="7.818055562675" lon="-76.7219442129135" alt="33.223M" type="HIGH" frequency="112.600" range="361237.0M" magvar="6.79" region="SK" ident="LCE" name="LOS CEDROS"><Dme lat="7.818055562675" lon="-76.7219442129135" alt="33.223M" range="361237.0M" /></Vor><Vor dme="TRUE" dmeOnly="FALSE" lat="5.69222219288349" lon="-76.6413889825344" alt="69.799M" type="HIGH" frequency="113.200" range="361237.0M" magvar="6.55" region="SK" ident="UIB" name="QUIBDO"><Dme lat="5.69222219288349" lon="-76.6413889825344" alt="69.799M" range="361237.0M" /></Vor><Vor dme="TRUE" dmeOnly="FALSE" lat="5.98055563867092" lon="-75.4183334112167" alt="2645.054M" type="HIGH" frequency="115.100" range="361237.0M" magvar="7.39" region="SK" ident="RNG" name="RIONEGRO (MEDELLIN)"><Dme lat="5.98055563867092" lon="-75.4183334112167" alt="2645.054M" range="361237.0M" /></Vor><Vor dme="TRUE" dmeOnly="FALSE" lat="4.39666662365198" lon="-75.10722219944" alt="808.329M" type="HIGH" frequency="112.000" range="361237.0M" magvar="7.4" region="SK" ident="IBG" name="IBAGUE"><Dme lat="4.39666662365198" lon="-75.10722219944" alt="808.329M" range="361237.0M" /></Vor><Vor dme="TRUE" dmeOnly="FALSE" lat="4.78083338588476" lon="-75.8355554938316" alt="1176.832M" type="HIGH" frequency="116.900" range="361237.0M" magvar="6.96" region="SK" ident="PEI" name="PEREIRA"><Dme lat="4.78083338588476" lon="-75.8355554938316" alt="1176.832M" range="361237.0M" /></Vor><Vor dme="TRUE" dmeOnly="FALSE" lat="3.82555559277534" lon="-76.9958335161209" alt="39.014M" type="HIGH" frequency="112.900" range="361237.0M" magvar="6.05" region="SK" ident="BUN" name="BUENAVENTURA"><Dme lat="3.82555559277534" lon="-76.9958335161209" alt="39.014M" range="361237.0M" /></Vor><Vor dme="TRUE" dmeOnly="FALSE" lat="4.09666657447815" lon="-76.2266667187214" alt="954.633M" type="HIGH" frequency="117.700" range="361237.0M" magvar="6.6" region="SK" ident="ULQ" name="TULUA"><Dme lat="4.09666657447815" lon="-76.2266667187214" alt="954.633M" range="361237.0M" /></Vor><Vor dme="TRUE" dmeOnly="FALSE" lat="3.40194426476955" lon="-76.4055557549" alt="1005.84M" type="HIGH" frequency="115.500" range="361237.0M" magvar="6.38" region="SK" ident="CLO" name="CALI"><Dme lat="3.40194426476955" lon="-76.4055557549" alt="1005.84M" range="361237.0M" /></Vor><Vor dme="TRUE" dmeOnly="FALSE" lat="3.05916666984558" lon="-75.2530556917191" alt="442.264M" type="HIGH" frequency="115.800" range="361237.0M" magvar="7.13" region="SK" ident="NVA" name="NEIVA"><Dme lat="3.05916666984558" lon="-75.2530556917191" alt="442.264M" range="361237.0M" /></Vor><Vor dme="TRUE" dmeOnly="FALSE" lat="0.989166498184204" lon="-79.6266666054726" alt="12.192M" type="HIGH" frequency="115.700" range="361237.0M" magvar="3.8" region="SE" ident="ESV" name="ESMERALDAS (TACHINA)"><Dme lat="0.989166498184204" lon="-79.6266666054726" alt="12.192M" range="361237.0M" /></Vor><Vor dme="TRUE" dmeOnly="FALSE" lat="1.81444432586432" lon="-78.7480553984642" alt="2.438M" type="HIGH" frequency="114.000" range="361237.0M" magvar="4.54" region="SK" ident="TCO" name="TUMACO (LA FLORIDA)"><Dme lat="1.81444432586432" lon="-78.7480553984642" alt="2.438M" range="361237.0M" /></Vor><Vor dme="TRUE" dmeOnly="FALSE" lat="1.78833335638046" lon="-77.1508334577084" alt="1188.72M" type="HIGH" frequency="116.300" range="361237.0M" magvar="5.63" region="SK" ident="MER" name="MERCADERES"><Dme lat="1.78833335638046" lon="-77.1508334577084" alt="1188.72M" range="361237.0M" /></Vor><Vor dme="TRUE" dmeOnly="FALSE" lat="1.48555554449558" lon="-75.4897221922874" alt="246.278M" type="HIGH" frequency="112.400" range="361237.0M" magvar="6.75" region="SK" ident="FLA" name="FLORENCIA"><Dme lat="1.48555554449558" lon="-75.4897221922874" alt="246.278M" range="361237.0M" /></Vor><Vor dme="TRUE" dmeOnly="FALSE" lat="1.39805551618338" lon="-77.289722263813" alt="1796.491M" type="HIGH" frequency="113.400" range="361237.0M" magvar="5.48" region="SK" ident="PSO" name="PASTO"><Dme lat="1.39805551618338" lon="-77.289722263813" alt="1796.491M" range="361237.0M" /></Vor><Vor dme="TRUE" dmeOnly="FALSE" lat="0.859166532754898" lon="-77.6733331382275" alt="2964.18M" type="HIGH" frequency="113.600" range="361237.0M" magvar="5.12" region="SK" ident="IPI" name="IPIALES"><Dme lat="0.859166532754898" lon="-77.6733331382275" alt="2964.18M" range="361237.0M" /></Vor><Vor dme="FALSE" dmeOnly="FALSE" lat="0.744722038507462" lon="-75.2372221648693" alt="205.74M" type="HIGH" frequency="114.200" range="361237.0M" magvar="6.82" region="SK" ident="TQS" name="TRES ESQUINAS" /><Vor dme="TRUE" dmeOnly="FALSE" lat="0.102222338318825" lon="-76.8563890457153" alt="312.724M" type="HIGH" frequency="112.300" range="361237.0M" magvar="5.57" region="SE" ident="LAV" name="LAGO AGRIO (NUEVA LOJA)"><Dme lat="0.102222338318825" lon="-76.8563890457153" alt="312.724M" range="361237.0M" /></Vor><Vor dme="TRUE" dmeOnly="FALSE" lat="10.7966664433479" lon="-74.8602779209614" alt="121.92M" type="HIGH" frequency="113.700" range="361237.0M" magvar="8.34" region="SK" ident="BAQ" name="BARRANQUILLA"><Dme lat="10.7966664433479" lon="-74.8602779209614" alt="121.92M" range="361237.0M" /></Vor><Vor dme="TRUE" dmeOnly="FALSE" lat="10.9619444981217" lon="-74.236111342907" alt="10.363M" type="HIGH" frequency="116.600" range="361237.0M" magvar="8.74" region="SK" ident="STA" name="SANTA MARTA"><Dme lat="10.9619444981217" lon="-74.236111342907" alt="10.363M" range="361237.0M" /></Vor><Vor dme="TRUE" dmeOnly="FALSE" lat="10.3377776965499" lon="-73.2624998688698" alt="138.074M" type="HIGH" frequency="114.600" range="361237.0M" magvar="9.26" region="SK" ident="VVP" name="VALLEDUPAR"><Dme lat="10.3377776965499" lon="-73.2624998688698" alt="138.074M" range="361237.0M" /></Vor><Vor dme="TRUE" dmeOnly="FALSE" lat="11.234166584909" lon="-72.4966666102409" alt="87.782M" type="HIGH" frequency="113.400" range="361237.0M" magvar="9.81" region="SK" ident="CJN" name="CERREJON (MAICAO)"><Dme lat="11.234166584909" lon="-72.4966666102409" alt="87.782M" range="361237.0M" /></Vor><Vor dme="TRUE" dmeOnly="FALSE" lat="10.5844017863274" lon="-71.7127069830894" alt="71.628M" type="HIGH" frequency="115.700" range="361237.0M" magvar="10.22" region="SV" ident="MAR" name="MARACAIBO"><Dme lat="10.5844017863274" lon="-71.7127069830894" alt="71.628M" range="361237.0M" /></Vor><Vor dme="TRUE" dmeOnly="FALSE" lat="9.29833319038153" lon="-74.853333234787" alt="60.35M" type="HIGH" frequency="114.100" range="361237.0M" magvar="8.17" region="SK" ident="MGN" name="MAGANGUE"><Dme lat="9.29833319038153" lon="-74.853333234787" alt="60.35M" range="361237.0M" /></Vor><Vor dme="TRUE" dmeOnly="FALSE" lat="9.0452778339386" lon="-73.9672221243382" alt="36.576M" type="HIGH" frequency="114.300" range="361237.0M" magvar="8.69" region="SK" ident="ELB" name="EL BANCO"><Dme lat="9.0452778339386" lon="-73.9672221243382" alt="36.576M" range="361237.0M" /></Vor><Vor dme="TRUE" dmeOnly="FALSE" lat="8.98392967879772" lon="-71.9379016757011" alt="10.058M" type="HIGH" frequency="114.900" range="361237.0M" magvar="9.94" region="SV" ident="STB" name="SANTA BARBARA DEL ZULIA"><Dme lat="8.98392967879772" lon="-71.9379016757011" alt="10.058M" range="361237.0M" /></Vor><Vor dme="TRUE" dmeOnly="FALSE" lat="10.6909015774727" lon="-71.0399293899536" alt="121.92M" type="HIGH" frequency="117.900" range="361237.0M" magvar="10.62" region="SV" ident="MAU" name="MENE MAUROA"><Dme lat="10.6909015774727" lon="-71.0399293899536" alt="121.92M" range="361237.0M" /></Vor><Vor dme="TRUE" dmeOnly="FALSE" lat="10.1794851198792" lon="-70.0648462772369" alt="441.96M" type="HIGH" frequency="112.700" range="361237.0M" magvar="11.14" region="SV" ident="COR" name="CARORA"><Dme lat="10.1794851198792" lon="-70.0648462772369" alt="441.96M" range="361237.0M" /></Vor><Vor dme="TRUE" dmeOnly="FALSE" lat="11.1708738282323" lon="-68.4156793355942" alt="8.839M" type="HIGH" frequency="112.900" range="361237.0M" magvar="12.11" region="SV" ident="PNA" name="PUNTA SAN JUAN"><Dme lat="11.1708738282323" lon="-68.4156793355942" alt="8.839M" range="361237.0M" /></Vor><Vor dme="TRUE" dmeOnly="FALSE" lat="10.0478184968233" lon="-69.3512351810932" alt="621.792M" type="HIGH" frequency="112.200" range="361237.0M" magvar="11.53" region="SV" ident="BRM" name="BARQUISIMETO"><Dme lat="10.0478184968233" lon="-69.3512351810932" alt="621.792M" range="361237.0M" /></Vor><Vor dme="TRUE" dmeOnly="FALSE" lat="10.1494443789124" lon="-67.9225002229214" alt="427.024M" type="HIGH" frequency="117.400" range="361237.0M" magvar="12.32" region="SV" ident="VAL" name="VALENCIA"><Dme lat="10.1494443789124" lon="-67.9225002229214" alt="427.024M" range="361237.0M" /></Vor><Vor dme="TRUE" dmeOnly="FALSE" lat="10.487262904644" lon="-68.0759574472904" alt="10.058M" type="HIGH" frequency="117.700" range="361237.0M" magvar="12.26" region="SV" ident="PBL" name="PUERTO CABELLO"><Dme lat="10.487262904644" lon="-68.0759574472904" alt="10.058M" range="361237.0M" /></Vor><Vor dme="TRUE" dmeOnly="FALSE" lat="10.1864293590188" lon="-67.5465126335621" alt="441.96M" type="HIGH" frequency="113.900" range="361237.0M" magvar="12.52" region="SV" ident="BAL" name="EL LIBERTADOR (MARACAY)"><Dme lat="10.1864293590188" lon="-67.5465126335621" alt="441.96M" range="361237.0M" /></Vor><Vor dme="TRUE" dmeOnly="FALSE" lat="9.4278185069561" lon="-70.5565126240253" alt="361.492M" type="HIGH" frequency="114.400" range="361237.0M" magvar="10.8" region="SV" ident="VRA" name="VALERA"><Dme lat="9.4278185069561" lon="-70.5565126240253" alt="361.492M" range="361237.0M" /></Vor><Vor dme="TRUE" dmeOnly="FALSE" lat="8.6147628352046" lon="-70.2165292203426" alt="204.216M" type="HIGH" frequency="117.500" range="361237.0M" magvar="10.94" region="SV" ident="BNS" name="BARINAS"><Dme lat="8.6147628352046" lon="-70.2165292203426" alt="204.216M" range="361237.0M" /></Vor><Vor dme="TRUE" dmeOnly="FALSE" lat="9.55504070967436" lon="-69.2356793582439" alt="228.904M" type="HIGH" frequency="113.400" range="361237.0M" magvar="11.57" region="SV" ident="AGV" name="ACARIGUA"><Dme lat="9.55504070967436" lon="-69.2356793582439" alt="228.904M" range="361237.0M" /></Vor><Vor dme="TRUE" dmeOnly="FALSE" lat="7.13166654109955" lon="-73.1844444572926" alt="1206.398M" type="HIGH" frequency="113.500" range="361237.0M" magvar="8.98" region="SK" ident="BGA" name="BUCARAMANGA"><Dme lat="7.13166654109955" lon="-73.1844444572926" alt="1206.398M" range="361237.0M" /></Vor><Vor dme="TRUE" dmeOnly="FALSE" lat="7.93361116200686" lon="-72.5138890743256" alt="326.136M" type="HIGH" frequency="113.300" range="361237.0M" magvar="9.48" region="SK" ident="CUC" name="CUCUTA"><Dme lat="7.93361116200686" lon="-72.5138890743256" alt="326.136M" range="361237.0M" /></Vor><Vor dme="TRUE" dmeOnly="FALSE" lat="8.2450407743454" lon="-72.2676238417625" alt="92.964M" type="HIGH" frequency="113.000" range="361237.0M" magvar="9.67" region="SV" ident="LFA" name="LA FRIA"><Dme lat="8.2450407743454" lon="-72.2676238417625" alt="92.964M" range="361237.0M" /></Vor><Vor dme="TRUE" dmeOnly="FALSE" lat="7.51670736819506" lon="-71.4457628130913" alt="167.64M" type="HIGH" frequency="116.000" range="361237.0M" magvar="10.11" region="SV" ident="CTN" name="EL CANTON"><Dme lat="7.51670736819506" lon="-71.4457628130913" alt="167.64M" range="361237.0M" /></Vor><Vor dme="TRUE" dmeOnly="TRUE" lat="7.57004074752331" lon="-72.0181792974472" alt="330.098M" type="HIGH" frequency="115.300" range="361237.0M" magvar="9.76" region="SV" ident="STD" name="SANTO DOMINGO"><Dme lat="7.57004074752331" lon="-72.0181792974472" alt="330.098M" range="361237.0M" /></Vor><Vor dme="TRUE" dmeOnly="FALSE" lat="7.02388867735863" lon="-74.7122222185135" alt="733.653M" type="HIGH" frequency="115.400" range="361237.0M" magvar="7.99" region="SK" ident="OTU" name="OTU"><Dme lat="7.02388867735863" lon="-74.7122222185135" alt="733.653M" range="361237.0M" /></Vor><Vor dme="TRUE" dmeOnly="FALSE" lat="7.02861104160547" lon="-73.8055555522442" alt="129.235M" type="HIGH" frequency="115.900" range="361237.0M" magvar="8.57" region="SK" ident="EJA" name="BARRANCABERMEJA"><Dme lat="7.02861104160547" lon="-73.8055555522442" alt="129.235M" range="361237.0M" /></Vor><Vor dme="TRUE" dmeOnly="FALSE" lat="7.06722211092711" lon="-70.7311110198498" alt="121.92M" type="HIGH" frequency="114.000" range="361237.0M" magvar="10.51" region="SK" ident="AUC" name="ARAUCA"><Dme lat="7.06722211092711" lon="-70.7311110198498" alt="121.92M" range="361237.0M" /></Vor><Vor dme="TRUE" dmeOnly="FALSE" lat="10.6125405058265" lon="-66.9876238703728" alt="79.248M" type="TERMINAL" frequency="114.800" range="69469.0M" magvar="12.83" region="SV" ident="MIQ" name="MAIQUETIA"><Dme lat="10.6125405058265" lon="-66.9876238703728" alt="79.248M" range="69469.0M" /></Vor><Vor dme="TRUE" dmeOnly="FALSE" lat="10.5772627517581" lon="-66.0479016602039" alt="60.96M" type="HIGH" frequency="113.500" range="361237.0M" magvar="13.3" region="SV" ident="CBC" name="CABO CODERA"><Dme lat="10.5772627517581" lon="-66.0479016602039" alt="60.96M" range="361237.0M" /></Vor><Vor dme="TRUE" dmeOnly="FALSE" lat="10.4400406032801" lon="-67.15845733881" alt="2407.92M" type="HIGH" frequency="116.100" range="361237.0M" magvar="12.73" region="SV" ident="NOL" name="NO LEON"><Dme lat="10.4400406032801" lon="-67.15845733881" alt="2407.92M" range="361237.0M" /></Vor><Vor dme="TRUE" dmeOnly="FALSE" lat="10.2953183278441" lon="-66.796790510416" alt="670.56M" type="HIGH" frequency="115.200" range="361237.0M" magvar="12.92" region="SV" ident="TUY" name="TUY (CARACAS)"><Dme lat="10.2953183278441" lon="-66.796790510416" alt="670.56M" range="361237.0M" /></Vor><Vor dme="TRUE" dmeOnly="FALSE" lat="10.9236516058445" lon="-63.9609570801258" alt="22.86M" type="HIGH" frequency="114.100" range="361237.0M" magvar="14.28" region="SV" ident="MTA" name="MARGARITA (DEL CARIBE)"><Dme lat="10.9236516058445" lon="-63.9609570801258" alt="22.86M" range="361237.0M" /></Vor><Vor dme="TRUE" dmeOnly="FALSE" lat="10.1333739235997" lon="-64.7079017758369" alt="9.144M" type="HIGH" frequency="115.900" range="361237.0M" magvar="13.94" region="SV" ident="BNA" name="BARCELONA"><Dme lat="10.1333739235997" lon="-64.7079017758369" alt="9.144M" range="361237.0M" /></Vor><Vor dme="TRUE" dmeOnly="FALSE" lat="10.447540730238" lon="-64.1376239061356" alt="7.924M" type="HIGH" frequency="113.300" range="361237.0M" magvar="14.2" region="SV" ident="CUM" name="CUMANA"><Dme lat="10.447540730238" lon="-64.1376239061356" alt="7.924M" range="361237.0M" /></Vor><Vor dme="TRUE" dmeOnly="FALSE" lat="9.22920729964972" lon="-65.9834571182728" alt="131.978M" type="HIGH" frequency="117.800" range="361237.0M" magvar="13.31" region="SV" ident="VPA" name="VALLE DE LA PASCUA"><Dme lat="9.22920729964972" lon="-65.9834571182728" alt="131.978M" range="361237.0M" /></Vor><Vor dme="TRUE" dmeOnly="FALSE" lat="8.92698504030705" lon="-67.4087351560593" alt="100.584M" type="HIGH" frequency="116.300" range="361237.0M" magvar="12.55" region="SV" ident="CZO" name="CALABOZO"><Dme lat="8.92698504030705" lon="-67.4087351560593" alt="100.584M" range="361237.0M" /></Vor><Vor dme="FALSE" dmeOnly="FALSE" lat="8.94420750439167" lon="-64.1559572517872" alt="257.556M" type="HIGH" frequency="116.500" range="361237.0M" magvar="14.2" region="SV" ident="SOM" name="SAN TOME" /><Vor dme="TRUE" dmeOnly="FALSE" lat="10.4661193862557" lon="-61.391936391592" alt="18.288M" type="HIGH" frequency="116.900" range="361237.0M" magvar="15.34" region="TT" ident="POS" name="PIARCO (PORT OF SPAIN)"><Dme lat="10.4661193862557" lon="-61.391936391592" alt="18.288M" range="361237.0M" /></Vor><Vor dme="TRUE" dmeOnly="FALSE" lat="9.74726289510727" lon="-63.1517904996872" alt="75.59M" type="HIGH" frequency="115.300" range="361237.0M" magvar="14.65" region="SV" ident="MUN" name="MATURIN"><Dme lat="9.74726289510727" lon="-63.1517904996872" alt="75.59M" range="361237.0M" /></Vor><Vor dme="TRUE" dmeOnly="FALSE" lat="7.88587421178818" lon="-67.4367906153202" alt="73.152M" type="HIGH" frequency="112.100" range="361237.0M" magvar="12.49" region="SV" ident="SFD" name="SAN FERNANDO DE APURE"><Dme lat="7.88587421178818" lon="-67.4367906153202" alt="73.152M" range="361237.0M" /></Vor><Vor dme="TRUE" dmeOnly="FALSE" lat="7.63115186244249" lon="-66.1690127849579" alt="44.5M" type="HIGH" frequency="112.300" range="361237.0M" magvar="13.18" region="SV" ident="CDO" name="CAICARA"><Dme lat="7.63115186244249" lon="-66.1690127849579" alt="44.5M" range="361237.0M" /></Vor><Vor dme="TRUE" dmeOnly="FALSE" lat="6.18138872087002" lon="-67.4955555796623" alt="55.168M" type="HIGH" frequency="112.900" range="361237.0M" magvar="12.39" region="SK" ident="PTC" name="PUERTO CARRENO"><Dme lat="6.18138872087002" lon="-67.4955555796623" alt="55.168M" range="361237.0M" /></Vor><Vor dme="TRUE" dmeOnly="FALSE" lat="8.12448520213366" lon="-63.5309574007988" alt="60.045M" type="HIGH" frequency="115.100" range="361237.0M" magvar="14.5" region="SV" ident="CBL" name="CIUDAD BOLIVAR"><Dme lat="8.12448520213366" lon="-63.5309574007988" alt="60.045M" range="361237.0M" /></Vor><Vor dme="TRUE" dmeOnly="FALSE" lat="8.29642955213785" lon="-62.7512347698212" alt="38.1M" type="HIGH" frequency="114.700" range="361237.0M" magvar="14.86" region="SV" ident="GNA" name="GUAYANA"><Dme lat="8.29642955213785" lon="-62.7512347698212" alt="38.1M" range="361237.0M" /></Vor><Vor dme="TRUE" dmeOnly="FALSE" lat="7.25170746445656" lon="-61.52040168643" alt="106.68M" type="HIGH" frequency="114.400" range="361237.0M" magvar="15.43" region="SV" ident="TMO" name="TUMEREMO"><Dme lat="7.25170746445656" lon="-61.52040168643" alt="106.68M" range="361237.0M" /></Vor><Vor dme="TRUE" dmeOnly="FALSE" lat="6.2067074328661" lon="-62.8498461842537" alt="457.2M" type="HIGH" frequency="117.500" range="361237.0M" magvar="14.86" region="SV" ident="CMA" name="CANAIMA"><Dme lat="6.2067074328661" lon="-62.8498461842537" alt="457.2M" range="361237.0M" /></Vor><Vor dme="TRUE" dmeOnly="FALSE" lat="5.20722214132547" lon="-74.9241667985916" alt="847.344M" type="HIGH" frequency="116.100" range="361237.0M" magvar="7.62" region="SK" ident="MQU" name="MARIQUITA"><Dme lat="5.20722214132547" lon="-74.9241667985916" alt="847.344M" range="361237.0M" /></Vor><Vor dme="TRUE" dmeOnly="FALSE" lat="5.53222205489874" lon="-73.8633334636688" alt="2743.2M" type="HIGH" frequency="116.200" range="361237.0M" magvar="8.36" region="SK" ident="BUV" name="BUVIS"><Dme lat="5.53222205489874" lon="-73.8633334636688" alt="2743.2M" range="361237.0M" /></Vor><Vor dme="TRUE" dmeOnly="FALSE" lat="5.01805566251278" lon="-73.9866667985916" alt="2514.6M" type="HIGH" frequency="114.700" range="361237.0M" magvar="8.22" region="SK" ident="ZIP" name="ZIPAQUIRA (BOGOTA)"><Dme lat="5.01805566251278" lon="-73.9866667985916" alt="2514.6M" range="361237.0M" /></Vor><Vor dme="TRUE" dmeOnly="FALSE" lat="4.84666652977467" lon="-74.3233332037926" alt="3019.348M" type="HIGH" frequency="113.900" range="361237.0M" magvar="7.98" region="SK" ident="BOG" name="BOGOTA"><Dme lat="4.84666652977467" lon="-74.3233332037926" alt="3019.348M" range="361237.0M" /></Vor><Vor dme="TRUE" dmeOnly="FALSE" lat="5.27694448828697" lon="-72.4258334934711" alt="274.929M" type="LOW" frequency="115.600" range="111150.0M" magvar="9.28" region="SK" ident="EYP" name="EL YOPAL"><Dme lat="5.27694448828697" lon="-72.4258334934711" alt="274.929M" range="111150.0M" /></Vor><Vor dme="TRUE" dmeOnly="FALSE" lat="4.19166672974825" lon="-74.8658332228661" alt="324.002M" type="HIGH" frequency="117.300" range="361237.0M" magvar="7.54" region="SK" ident="GIR" name="GIRARDOT"><Dme lat="4.19166672974825" lon="-74.8658332228661" alt="324.002M" range="361237.0M" /></Vor><Vor dme="TRUE" dmeOnly="FALSE" lat="4.06694434583187" lon="-73.3822220563889" alt="274.32M" type="HIGH" frequency="116.700" range="361237.0M" magvar="8.52" region="SK" ident="VVC" name="VILLAVICENCIO"><Dme lat="4.06694434583187" lon="-73.3822220563889" alt="274.32M" range="361237.0M" /></Vor><Vor dme="TRUE" dmeOnly="FALSE" lat="5.61920743435621" lon="-67.6084573566914" alt="32.004M" type="HIGH" frequency="112.800" range="361237.0M" magvar="12.3" region="SV" ident="PAY" name="PUERTO AYACUCHO"><Dme lat="5.61920743435621" lon="-67.6084573566914" alt="32.004M" range="361237.0M" /></Vor><Vor dme="TRUE" dmeOnly="FALSE" lat="3.85266400873661" lon="-67.9039250314236" alt="101.193M" type="HIGH" frequency="114.900" range="361237.0M" magvar="12.04" region="SK" ident="PDA" name="PUERTO INIRIDA"><Dme lat="3.85266400873661" lon="-67.9039250314236" alt="101.193M" range="361237.0M" /></Vor><Vor dme="TRUE" dmeOnly="FALSE" lat="2.57277756929398" lon="-72.6338888704777" alt="158.496M" type="HIGH" frequency="113.300" range="361237.0M" magvar="8.86" region="SK" ident="SJE" name="SAN JOSE DEL GUAVIARE"><Dme lat="2.57277756929398" lon="-72.6338888704777" alt="158.496M" range="361237.0M" /></Vor><Vor dme="TRUE" dmeOnly="FALSE" lat="1.24222218990326" lon="-70.2366667985916" alt="213.36M" type="HIGH" frequency="112.200" range="361237.0M" magvar="10.35" region="SK" ident="MTU" name="MITU"><Dme lat="1.24222218990326" lon="-70.2366667985916" alt="213.36M" range="361237.0M" /></Vor><Vor dme="TRUE" dmeOnly="FALSE" lat="4.69309631735086" lon="-61.0270683467388" alt="786.993M" type="HIGH" frequency="117.700" range="361237.0M" magvar="15.75" region="SV" ident="LDP" name="LA DIVINA PASTORA"><Dme lat="4.69309631735086" lon="-61.0270683467388" alt="786.993M" range="361237.0M" /></Vor><Vor dme="TRUE" dmeOnly="FALSE" lat="2.85211388021708" lon="-60.6869275867939" alt="152.4M" type="HIGH" frequency="113.100" range="361237.0M" magvar="15.98" region="SB" ident="BVI" name="BOA VISTA"><Dme lat="2.85211388021708" lon="-60.6869275867939" alt="152.4M" range="361237.0M" /></Vor><Ndb lat="21.2733889371157" lon="-89.7136192023754" alt="0.914M" type="H" frequency="0280.00" range="138937.0M" magvar="0.77" region="MM" ident="MPG" name="PROGRESO" /><Ndb lat="20.5219499766827" lon="-86.9339333474636" alt="0.914M" type="H" frequency="0330.00" range="138937.0M" magvar="2.32" region="MM" ident="CZM" name="COZUMEL" /><Ndb lat="22.3305554687977" lon="-83.6541666090488" alt="29.87M" type="H" frequency="0322.00" range="138937.0M" magvar="4.54" region="MU" ident="L" name="LA COLOMA" /><Ndb lat="22.3216666281223" lon="-83.6894443631172" alt="25.908M" type="COMPASS_POINT" frequency="0465.00" range="41681.0M" magvar="4.52" region="MU" ident="ULM" name="LA COLOMA" /><Ndb lat="22.0858334004879" lon="-84.214444309473" alt="6.096M" type="H" frequency="0402.00" range="138937.0M" magvar="4.16" region="MU" ident="USJ" name="SAN JULIAN" /><Ndb lat="22.0849999040365" lon="-84.1822224855423" alt="26.212M" type="COMPASS_POINT" frequency="0353.00" range="41681.0M" magvar="4.18" region="MU" ident="J" name="SAN JULIAN" /><Ndb lat="21.821683421731" lon="-82.7993470430374" alt="27.127M" type="COMPASS_POINT" frequency="0278.00" range="41681.0M" magvar="4.99" region="MU" ident="D" name="GERONA (NUEVA GERONA)" /><Ndb lat="21.7558915168047" lon="-82.878158390522" alt="64.008M" type="H" frequency="0412.00" range="138937.0M" magvar="4.94" region="MU" ident="UNG" name="GERONA (NUEVA GERONA)" /><Ndb lat="16.9156277552247" lon="-89.880133420229" alt="115.824M" type="H" frequency="0385.00" range="138937.0M" magvar="0.18" region="MG" ident="TKL" name="SANTA ELENA (FLORES)" /><Ndb lat="17.5386110320687" lon="-88.3138887584209" alt="5.181M" type="H" frequency="0392.00" range="138937.0M" magvar="1.14" region="MZ" ident="BZE" name="BELIZE" /><Ndb lat="21.6041720286012" lon="-81.5290501713753" alt="3.657M" type="H" frequency="0230.00" range="138937.0M" magvar="5.74" region="MU" ident="UCL" name="CAYO LARGO DEL SUR" /><Ndb lat="22.1138889715075" lon="-80.4253359138966" alt="13.106M" type="H" frequency="0212.00" range="138937.0M" magvar="6.47" region="MU" ident="UCF" name="CIENFUEGOS" /><Ndb lat="22.4807108938694" lon="-79.9934251606464" alt="103.022M" type="H" frequency="0240.00" range="138937.0M" magvar="6.78" region="MU" ident="USC" name="SANTA CLARA" /><Ndb lat="22.373610958457" lon="-78.7730558216572" alt="9.753M" type="H" frequency="0382.00" range="138937.0M" magvar="7.48" region="MU" ident="UPA" name="ALEGRE" /><Ndb lat="22.0160999894142" lon="-78.8135585188866" alt="100.584M" type="COMPASS_POINT" frequency="0360.00" range="41681.0M" magvar="7.41" region="MU" ident="G" name="GOLF (CIEGO DE AVILA)" /><Ndb lat="21.9894472137094" lon="-78.8719113171101" alt="128.93M" type="H" frequency="0390.00" range="138937.0M" magvar="7.38" region="MU" ident="UCA" name="CIEGO DE AVILA" /><Ndb lat="21.7905832082033" lon="-79.9911805987358" alt="38.1M" type="H" frequency="0300.00" range="138937.0M" magvar="6.69" region="MU" ident="UTD" name="TRINIDAD" /><Ndb lat="21.7458332329988" lon="-78.8119442760944" alt="25.603M" type="H" frequency="0315.00" range="138937.0M" magvar="7.38" region="MU" ident="USR" name="SIMONES" /><Ndb lat="19.6899750083685" lon="-79.8567719757557" alt="7.01M" type="H" frequency="0415.00" range="138937.0M" magvar="6.48" region="MW" ident="CBC" name="CAYMAN BRAC" /><Ndb lat="22.4674443528056" lon="-78.3070832490921" alt="3.962M" type="H" frequency="0382.00" range="138937.0M" magvar="7.77" region="MU" ident="UCC" name="JARDINES DEL REY (CAYO COCO)" /><Ndb lat="21.4134944602847" lon="-77.8658638894558" alt="125.882M" type="MH" frequency="0402.00" range="69469.0M" magvar="7.89" region="MU" ident="C" name="CAMAGUEY" /><Ndb lat="21.3904998824" lon="-77.9290723800659" alt="92.964M" type="H" frequency="0370.00" range="138937.0M" magvar="7.85" region="MU" ident="UCM" name="CAMAGUEY" /><Ndb lat="21.3994443789124" lon="-77.2325000166893" alt="10.668M" type="H" frequency="0256.00" range="138937.0M" magvar="8.25" region="MU" ident="UNV" name="NUEVAS" /><Ndb lat="20.9886137768626" lon="-76.938786059618" alt="100.279M" type="H" frequency="0296.00" range="138937.0M" magvar="8.36" region="MU" ident="UVT" name="TUNAS (VICTORIA DE LAS TUNAS)" /><Ndb lat="20.2824997901917" lon="-77.1105556190014" alt="33.528M" type="H" frequency="0244.00" range="138937.0M" magvar="8.18" region="MU" ident="M" name="MANZANILLO" /><Ndb lat="20.7305138558149" lon="-76.3763974606991" alt="63.703M" type="H" frequency="0353.00" range="138937.0M" magvar="8.65" region="MU" ident="UHG" name="HOLGUIN" /><Ndb lat="20.393894277513" lon="-76.6191776096821" alt="61.569M" type="H" frequency="0268.00" range="138937.0M" magvar="8.47" region="MU" ident="UBY" name="BAYAMO" /><Ndb lat="20.0789526477456" lon="-75.1582972705364" alt="17.068M" type="H" frequency="0300.00" range="138937.0M" magvar="9.25" region="MU" ident="UGT" name="GUANTANAMO" /><Ndb lat="19.972877651453" lon="-75.8209164440632" alt="75.895M" type="H" frequency="0339.00" range="138937.0M" magvar="8.87" region="MU" ident="UCU" name="SANTIAGO DE CUBA" /><Ndb lat="19.2857637628913" lon="-81.3860750198364" alt="7.315M" type="H" frequency="0344.00" range="138937.0M" magvar="5.51" region="MW" ident="ZIY" name="GRAND CAYMAN" /><Ndb lat="18.5035276785493" lon="-77.9183609783649" alt="2.133M" type="H" frequency="0248.00" range="138937.0M" magvar="7.48" region="MK" ident="MBJ" name="MONTEGO BAY" /><Ndb lat="17.966388836503" lon="-76.875" alt="8.229M" type="H" frequency="0360.00" range="138937.0M" magvar="8.02" region="MK" ident="KIN" name="KINGSTON" /><Ndb lat="16.3249999657273" lon="-89.4216665625572" alt="549.859M" type="H" frequency="0363.00" range="138937.0M" magvar="0.36" region="MG" ident="POP" name="POPTUN" /><Ndb lat="15.7366664707661" lon="-88.5949999094009" alt="3.657M" type="H" frequency="0347.00" range="138937.0M" magvar="0.74" region="MG" ident="BAR" name="PUERTO BARRIOS" /><Ndb lat="16.3158221170306" lon="-86.5293748676777" alt="20.116M" type="H" frequency="0301.00" range="138937.0M" magvar="2.0" region="MH" ident="ROA" name="ROATAN" /><Ndb lat="15.5200026556849" lon="-87.8643362224102" alt="29.565M" type="COMPASS_POINT" frequency="0360.00" range="41681.0M" magvar="1.12" region="MH" ident="SAP" name="SAN PEDRO SULA" /><Ndb lat="15.7382027059793" lon="-86.8905222415924" alt="8.839M" type="H" frequency="0227.00" range="138937.0M" magvar="1.71" region="MH" ident="LCE" name="LA CEIBA" /><Ndb lat="15.6402776017785" lon="-87.1761108934879" alt="60.35M" type="H" frequency="0207.00" range="138937.0M" magvar="1.53" region="MH" ident="SJB" name="SAN JUAN BENQUE" /><Ndb lat="15.4488584026694" lon="-87.9323999583721" alt="34.442M" type="H" frequency="0370.00" range="138937.0M" magvar="1.07" region="MH" ident="LMS" name="LA MESA" /><Ndb lat="16.008055396378" lon="-85.9738889336586" alt="3.657M" type="H" frequency="0289.00" range="138937.0M" magvar="2.28" region="MH" ident="CTL" name="PUNTA CASTILLA" /><Ndb lat="15.2594444900751" lon="-83.7786112725735" alt="10.058M" type="H" frequency="0320.00" range="138937.0M" magvar="3.48" region="MH" ident="PLP" name="PUERTO LEMPIRA" /><Ndb lat="13.6985554173589" lon="-89.1243056952953" alt="17.983M" type="H" frequency="0215.00" range="138937.0M" magvar="0.17" region="MS" ident="YSX" name="ILOPANGO (SAN SALVADOR)" /><Ndb lat="13.4121944010258" lon="-89.1371664404869" alt="3.048M" type="MH" frequency="0331.00" range="69469.0M" magvar="0.12" region="MS" ident="LAN" name="AMATECAMPO (SAN SALVADOR)" /><Ndb lat="14.059999845922" lon="-87.2205555438995" alt="1005.23M" type="H" frequency="0405.00" range="138937.0M" magvar="1.28" region="MH" ident="TNT" name="TONCONTIN (TEGUCIGALPA)" /><Ndb lat="13.9405553787947" lon="-87.2444446384907" alt="1608.734M" type="H" frequency="0355.00" range="138937.0M" magvar="1.25" region="MH" ident="TGU" name="TEGUCIGALPA" /><Ndb lat="12.1420470625162" lon="-86.1588723957539" alt="65.532M" type="H" frequency="0290.00" range="138937.0M" magvar="1.6" region="MN" ident="YNP" name="MANAGUA" /><Ndb lat="12.5922223180532" lon="-81.7025001347065" alt="0.0M" type="H" frequency="0387.00" range="138937.0M" magvar="4.34" region="SK" ident="SPP" name="SAN ANDRES" /><Ndb lat="21.7777166515589" lon="-72.2605611383915" alt="15.24M" type="H" frequency="0387.00" range="138937.0M" magvar="10.95" region="MB" ident="PV" name="PROVIDENCIALES" /><Ndb lat="21.5124998241663" lon="-71.5375001728535" alt="3.352M" type="H" frequency="0260.00" range="138937.0M" magvar="11.28" region="MB" ident="SC" name="SOUTH CAICOS" /><Ndb lat="20.6388610973954" lon="-74.9543277919292" alt="39.014M" type="H" frequency="0212.00" range="138937.0M" magvar="9.43" region="MU" ident="UMO" name="MOA" /><Ndb lat="20.9597220271826" lon="-73.6775001883507" alt="10.363M" type="H" frequency="0376.00" range="138937.0M" magvar="10.15" region="MY" ident="ZIN" name="GREAT INAGUA I" /><Ndb lat="20.3694831579924" lon="-74.522850215435" alt="4.572M" type="H" frequency="0278.00" range="138937.0M" magvar="9.63" region="MU" ident="UBA" name="BARACOA" /><Ndb lat="19.7316665947437" lon="-72.1936109662056" alt="4.267M" type="H" frequency="0288.00" range="138937.0M" magvar="10.79" region="MT" ident="HTN" name="CAP HAITIEN" /><Ndb lat="19.9333331733942" lon="-72.8499998152256" alt="3.352M" type="H" frequency="0332.00" range="138937.0M" magvar="10.47" region="MT" ident="PPX" name="PORT DE PAIX" /><Ndb lat="21.4371582493186" lon="-71.145952641964" alt="4.572M" type="H" frequency="0232.00" range="138937.0M" magvar="11.46" region="MB" ident="GT" name="GRAND TURK" /><Ndb lat="19.7523749247193" lon="-70.57025000453" alt="8.534M" type="H" frequency="0450.00" range="138937.0M" magvar="11.59" region="MD" ident="PPA" name="PUERTO PLATA" /><Ndb lat="18.6666666716337" lon="-74.1416667401791" alt="0.914M" type="H" frequency="0384.00" range="138937.0M" magvar="9.65" region="MT" ident="JRM" name="JEREMIE" /><Ndb lat="18.2666664943099" lon="-73.7833334505558" alt="29.87M" type="H" frequency="0350.00" range="138937.0M" magvar="9.8" region="MT" ident="CAY" name="CAYES" /><Ndb lat="18.2333333417773" lon="-72.5166665017605" alt="43.586M" type="H" frequency="0213.00" range="138937.0M" magvar="10.48" region="MT" ident="JML" name="JACMEL" /><Ndb lat="18.5780555382371" lon="-69.7244444489479" alt="26.517M" type="H" frequency="0200.00" range="138937.0M" magvar="11.9" region="MD" ident="LAS" name="GUERRA" /><Ndb lat="18.5141666606069" lon="-69.7658331692219" alt="32.308M" type="H" frequency="0220.00" range="138937.0M" magvar="11.87" region="MD" ident="HIJ" name="SAN ISIDRO" /><Ndb lat="18.4675833955407" lon="-69.9701665341854" alt="57.912M" type="H" frequency="0410.00" range="138937.0M" magvar="11.77" region="MD" ident="HER" name="HERRERA" /><Ndb lat="18.4508943557739" lon="-68.9212140440941" alt="73.152M" type="H" frequency="0325.00" range="138937.0M" magvar="12.26" region="MD" ident="LRN" name="LA ROMANA" /><Ndb lat="18.5642803832889" lon="-68.3714304864407" alt="29.26M" type="H" frequency="0425.00" range="138937.0M" magvar="12.52" region="MD" ident="PCA" name="PUNTA CANA" /><Ndb lat="18.4682777523994" lon="-66.4123919606209" alt="1.524M" type="HH" frequency="0391.00" range="208406.0M" magvar="13.34" region="TJ" ident="DDP" name="DORADO (SAN JUAN)" /><Ndb lat="18.445833362639" lon="-64.5358331501484" alt="4.572M" type="H" frequency="0360.00" range="138937.0M" magvar="14.04" region="TU" ident="BFI" name="TERRANCE B LETTSOME" /><Ndb lat="17.6919193938375" lon="-64.8846749961376" alt="11.582M" type="MH" frequency="0241.00" range="69469.0M" magvar="13.91" region="TI" ident="SX" name="PESTE (ST CROIX)" /><Ndb lat="18.0431472882628" lon="-63.11697229743" alt="40.233M" type="H" frequency="0308.00" range="138937.0M" magvar="14.51" region="TN" ident="PJM" name="SAINT MAARTEN" /><Ndb lat="18.2052472606301" lon="-63.0926638841629" alt="25.908M" type="H" frequency="0209.00" range="138937.0M" magvar="14.52" region="TQ" ident="ANG" name="WALLBLAKE (THE VALLEY)" /><Ndb lat="18.0377999693155" lon="-63.1178610026836" alt="40.233M" type="MH" frequency="0284.00" range="69469.0M" magvar="14.51" region="TN" ident="PJD" name="SAINT MAARTEN" /><Ndb lat="17.4853665009141" lon="-62.9852803051472" alt="37.49M" type="COMPASS_POINT" frequency="0235.00" range="41681.0M" magvar="14.56" region="TN" ident="PJE" name="ST. EUSTATIOUS" /><Ndb lat="17.2951831296086" lon="-62.7440057694912" alt="40.843M" type="H" frequency="0325.00" range="138937.0M" magvar="14.64" region="TK" ident="SKB" name="ROBERT L BRADSHAW (ST KITTS)" /><Ndb lat="17.1256386861205" lon="-61.811355650425" alt="17.068M" type="H" frequency="0351.00" range="138937.0M" magvar="14.94" region="TA" ident="ANU" name="V.C. BIRD (SAINT JOHNS)" /><Ndb lat="17.1571278199553" lon="-61.7953164875507" alt="3.048M" type="H" frequency="0369.00" range="138937.0M" magvar="14.94" region="TA" ident="ZDX" name="V.C. BIRD (SAINT JOHNS)" /><Ndb lat="12.191111035645" lon="-72.1458332240582" alt="23.774M" type="H" frequency="0410.00" range="138937.0M" magvar="10.11" region="SK" ident="ECB" name="EL CABO" /><Ndb lat="12.2230554744601" lon="-71.9711109995842" alt="0.0M" type="H" frequency="0420.00" range="138937.0M" magvar="10.21" region="SK" ident="PTE" name="PORTETE (URIBIA)" /><Ndb lat="12.2186110541224" lon="-72.0072224736214" alt="36.576M" type="H" frequency="0230.00" range="138937.0M" magvar="10.19" region="SK" ident="PBL" name="PUERTO BOLIVAR (URIBIA)" /><Ndb lat="11.5302777662873" lon="-72.9188887774944" alt="6.096M" type="H" frequency="0295.00" range="138937.0M" magvar="9.59" region="SK" ident="RHC" name="RIOHACHA" /><Ndb lat="11.7800403758883" lon="-70.1370683312416" alt="41.148M" type="H" frequency="0385.00" range="138937.0M" magvar="11.21" region="SV" ident="PRG" name="PARAGUANA (PUNTO FIJO)" /><Ndb lat="12.1418110281229" lon="-68.2778665423393" alt="1.219M" type="H" frequency="0321.00" range="138937.0M" magvar="12.23" region="TN" ident="PJB" name="BONAIRE" /><Ndb lat="16.2611110880971" lon="-61.5277777612209" alt="10.363M" type="H" frequency="0300.00" range="138937.0M" magvar="15.05" region="TF" ident="PPR" name="POINTE A PITRE" /><Ndb lat="16.2835833057761" lon="-61.6309444606304" alt="10.972M" type="H" frequency="0385.00" range="138937.0M" magvar="15.02" region="TF" ident="PTP" name="POINTE A PITRE" /><Ndb lat="15.5509332194924" lon="-61.2956249713898" alt="22.25M" type="H" frequency="0273.00" range="138937.0M" magvar="15.15" region="TD" ident="DOM" name="MELVILLE HALL" /><Ndb lat="15.8697499707341" lon="-61.2708610296249" alt="5.486M" type="H" frequency="0376.00" range="138937.0M" magvar="15.14" region="TF" ident="MG" name="MARIE GALANTE (GRAND BOURG)" /><Ndb lat="15.3944444283843" lon="-61.4055557549" alt="273.1M" type="H" frequency="0260.00" range="138937.0M" magvar="15.12" region="TD" ident="DCF" name="CANEFIELD (ROSEAU)" /><Ndb lat="14.5890833437443" lon="-61.001278012991" alt="4.876M" type="H" frequency="0329.00" range="138937.0M" magvar="15.28" region="TF" ident="FOF" name="FT DE FRANCE" /><Ndb lat="14.0141414478421" lon="-61.0060581564903" alt="10.058M" type="H" frequency="0415.00" range="138937.0M" magvar="15.31" region="TL" ident="SLU" name="GEORGE CHARLES (ST. LUCIA)" /><Ndb lat="13.7336497753859" lon="-60.9773862361908" alt="12.192M" type="H" frequency="0305.00" range="138937.0M" magvar="15.33" region="TL" ident="BNE" name="HEWANORRA (SAINT LUCIA)" /><Ndb lat="13.1406331434846" lon="-61.2261664867401" alt="20.116M" type="H" frequency="0403.00" range="138937.0M" magvar="15.28" region="TV" ident="SV" name="E.T. JOSHUA (SAINT VINCENT I)" /><Ndb lat="12.696083150804" lon="-61.3394446671009" alt="7.62M" type="H" frequency="0302.00" range="138937.0M" magvar="15.26" region="TV" ident="CAI" name="CANOUAN (ST. VINCENT)" /><Ndb lat="12.0081414654851" lon="-61.7800721526146" alt="11.277M" type="H" frequency="0362.00" range="138937.0M" magvar="15.13" region="TG" ident="GND" name="POINT SALINES (SAINT GEORGE'S)" /><Ndb lat="11.036666482687" lon="-84.709999859333" alt="31.089M" type="H" frequency="0221.00" range="138937.0M" magvar="2.27" region="MR" ident="CHI" name="LOS CHILES" /><Ndb lat="10.4483333230019" lon="-84.4666667282581" alt="65.532M" type="H" frequency="0212.00" range="138937.0M" magvar="2.32" region="MR" ident="FIO" name="FIORA" /><Ndb lat="10.7533333450556" lon="-83.5833334922791" alt="1.524M" type="H" frequency="0380.00" range="138937.0M" magvar="2.9" region="MR" ident="COL" name="BARRA DEL COLORADO" /><Ndb lat="9.95951648801565" lon="-84.2937639355659" alt="703.173M" type="H" frequency="0260.00" range="138937.0M" magvar="2.35" region="MR" ident="HOR" name="HORCONES (SAN JOSE)" /><Ndb lat="9.52200561761856" lon="-84.3182498216629" alt="8.229M" type="H" frequency="0395.00" range="138937.0M" magvar="2.26" region="MR" ident="PAR" name="PARRITA" /><Ndb lat="8.60333327203989" lon="-82.968333363533" alt="24.688M" type="H" frequency="0201.00" range="138937.0M" magvar="2.93" region="MR" ident="COT" name="COTO 47" /><Ndb lat="8.78714706748724" lon="-79.5606333017349" alt="136.245M" type="HH" frequency="0311.00" range="208406.0M" magvar="5.1" region="MP" ident="TBG" name="TABOGA ISLAND" /><Ndb lat="9.04026109725237" lon="-79.3968053162098" alt="4.267M" type="MH" frequency="0326.00" range="69469.0M" magvar="5.24" region="MP" ident="AT" name="TOCUMEN" /><Ndb lat="10.3966666013002" lon="-75.5141665041447" alt="30.784M" type="MH" frequency="0255.00" range="69469.0M" magvar="7.88" region="SK" ident="CT" name="CARTAGENA" /><Ndb lat="9.25911091268063" lon="-78.1186111271381" alt="3.657M" type="H" frequency="0356.00" range="138937.0M" magvar="6.09" region="MP" ident="TPL" name="TUPILE (WANNUKANDI)" /><Ndb lat="8.38983044028282" lon="-82.4280998110771" alt="16.764M" type="H" frequency="0350.00" range="138937.0M" magvar="3.23" region="MP" ident="DAV" name="DAVID" /><Ndb lat="8.06499984115362" lon="-76.7452776432037" alt="0.0M" type="H" frequency="0352.00" range="138937.0M" magvar="6.8" region="SK" ident="TUR" name="TURBO" /><Ndb lat="8.01222201436758" lon="-75.3977778553963" alt="71.323M" type="H" frequency="0385.00" range="138937.0M" magvar="7.66" region="SK" ident="MLB" name="MONTELIBANO" /><Ndb lat="6.20361115783453" lon="-77.3941665887833" alt="161.239M" type="H" frequency="0240.00" range="138937.0M" magvar="6.12" region="SK" ident="BHS" name="BAHIA SOLANO" /><Ndb lat="5.71361113339663" lon="-77.2600002586842" alt="11.887M" type="H" frequency="0461.00" range="138937.0M" magvar="6.14" region="SK" ident="NQI" name="NUQUI" /><Ndb lat="6.39472223818302" lon="-75.1411110162735" alt="1593.494M" type="H" frequency="0412.50" range="138937.0M" magvar="7.63" region="SK" ident="ALE" name="ALEJANDRIA" /><Ndb lat="6.21999979019165" lon="-75.4258333146572" alt="2118.969M" type="H" frequency="0274.00" range="138937.0M" magvar="7.42" region="SK" ident="LI" name="MEDELLIN" /><Ndb lat="5.07083315402269" lon="-76.6780556738377" alt="103.632M" type="H" frequency="0391.00" range="138937.0M" magvar="6.44" region="SK" ident="CDT" name="CONDOTO" /><Ndb lat="5.05805544555187" lon="-75.5319446325302" alt="2109.216M" type="H" frequency="0337.00" range="138937.0M" magvar="7.2" region="SK" ident="LNA" name="MANIZALES" /><Ndb lat="4.47277765721083" lon="-75.5566665530205" alt="3292.754M" type="H" frequency="0225.00" range="138937.0M" magvar="7.1" region="SK" ident="EPO" name="EL PASO" /><Ndb lat="4.39749978482723" lon="-75.1058332622051" alt="856.488M" type="H" frequency="0312.00" range="138937.0M" magvar="7.4" region="SK" ident="IBG" name="IBAGUE" /><Ndb lat="4.45444442331791" lon="-75.7663889229298" alt="1207.008M" type="MH" frequency="0315.00" range="69469.0M" magvar="6.96" region="SK" ident="AXM" name="ARMENIA" /><Ndb lat="4.79916661977768" lon="-75.7805554568768" alt="1210.97M" type="COMPASS_POINT" frequency="0244.00" range="41681.0M" magvar="7.0" region="SK" ident="MAT" name="MATECANA (PEREIRA)" /><Ndb lat="3.82416654378176" lon="-76.9941665232182" alt="30.48M" type="H" frequency="0375.00" range="138937.0M" magvar="6.05" region="SK" ident="BUN" name="BUENAVENTURA" /><Ndb lat="3.5947223380208" lon="-76.3730554282665" alt="716.889M" type="H" frequency="0274.00" range="138937.0M" magvar="6.43" region="SK" ident="PL" name="PALMA (CALI)" /><Ndb lat="3.3986109495163" lon="-76.406666636467" alt="779.373M" type="H" frequency="0210.00" range="138937.0M" magvar="6.38" region="SK" ident="CLO" name="CALI" /><Ndb lat="1.80861119180918" lon="-78.7547220289707" alt="2.438M" type="H" frequency="0355.00" range="138937.0M" magvar="4.53" region="SK" ident="TCO" name="TUMACO" /><Ndb lat="0.970833264291286" lon="-79.6294444799423" alt="0.914M" type="H" frequency="0215.00" range="138937.0M" magvar="3.79" region="SE" ident="ESM" name="ESMERALDAS (TACHINA)" /><Ndb lat="2.57361106574535" lon="-77.8941665589809" alt="64.922M" type="H" frequency="0309.00" range="138937.0M" magvar="5.24" region="SK" ident="GPI" name="GUAPI" /><Ndb lat="2.44972217828035" lon="-76.6141667962074" alt="1732.178M" type="H" frequency="0255.00" range="138937.0M" magvar="6.1" region="SK" ident="PPN" name="POPAYAN" /><Ndb lat="0.819999910891056" lon="-77.6849998533726" alt="2882.798M" type="H" frequency="0418.00" range="138937.0M" magvar="5.11" region="SE" ident="TLC" name="TULCAN" /><Ndb lat="0.85638877004385" lon="-77.6752777397633" alt="2965.704M" type="H" frequency="0244.00" range="138937.0M" magvar="5.12" region="SK" ident="SLI" name="SAN LUIS (IPIALES)" /><Ndb lat="1.39527775347233" lon="-77.2888889908791" alt="1539.24M" type="H" frequency="0264.00" range="138937.0M" magvar="5.48" region="SK" ident="PSO" name="PASTO" /><Ndb lat="0.16333345323801" lon="-78.0605556070805" alt="3562.807M" type="H" frequency="0400.00" range="138937.0M" magvar="4.74" region="SE" ident="OLM" name="OLMEDO" /><Ndb lat="0.0838887691497803" lon="-76.8802776932716" alt="406.298M" type="MH" frequency="0412.00" range="69469.0M" magvar="5.55" region="SE" ident="LAR" name="LAGO AGRIO (NUEVA LOJA)" /><Ndb lat="0.0666666403412819" lon="-76.9033335149288" alt="406.298M" type="H" frequency="0353.00" range="138937.0M" magvar="5.54" region="SE" ident="LAG" name="LAGO AGRIO (NUEVA LOJA)" /><Ndb lat="0.74499998241663" lon="-75.2366665005684" alt="217.017M" type="H" frequency="0341.00" range="138937.0M" magvar="6.82" region="SK" ident="TQS" name="TRES ESQUINAS" /><Ndb lat="0.5516666918993" lon="-76.5013888478279" alt="249.936M" type="H" frequency="0330.00" range="138937.0M" magvar="5.9" region="SK" ident="SIS" name="PUERTO ASIS" /><Ndb lat="0.666666738688946" lon="-76.8166664242744" alt="615.696M" type="H" frequency="1635.00" range="138937.0M" magvar="5.69" region="SK" ident="ORI" name="ORITO" /><Ndb lat="11.0077777504921" lon="-74.2613889276981" alt="6.4M" type="H" frequency="0287.00" range="138937.0M" magvar="8.73" region="SK" ident="SMR" name="SANTA MARTA" /><Ndb lat="10.43277785182" lon="-73.2466667890549" alt="138.074M" type="H" frequency="0325.00" range="138937.0M" magvar="9.28" region="SK" ident="VUP" name="VALLEDUPAR" /><Ndb lat="11.2352776899934" lon="-72.508888989687" alt="88.696M" type="H" frequency="0415.00" range="138937.0M" magvar="9.81" region="SK" ident="CJN" name="CERREJON (MAICAO)" /><Ndb lat="10.5733738839626" lon="-71.69956818223" alt="25.603M" type="H" frequency="0267.00" range="138937.0M" magvar="10.22" region="SV" ident="MAR" name="MARACAIBO" /><Ndb lat="9.04972225427628" lon="-73.9750000834465" alt="50.292M" type="H" frequency="0342.50" range="138937.0M" magvar="8.69" region="SK" ident="ELB" name="EL BANCO" /><Ndb lat="8.6228185147047" lon="-71.6640128195286" alt="144.78M" type="H" frequency="0393.00" range="138937.0M" magvar="10.07" region="SV" ident="EVG" name="EL VIGIA" /><Ndb lat="8.98392967879772" lon="-71.938179731369" alt="35.966M" type="H" frequency="0218.00" range="138937.0M" magvar="9.94" region="SV" ident="STB" name="SANTA BARBARA DEL ZULIA" /><Ndb lat="10.0000406429172" lon="-71.0665127635002" alt="48.463M" type="H" frequency="0370.00" range="138937.0M" magvar="10.55" region="SV" ident="BCO" name="BACHAQUERO" /><Ndb lat="10.1803182810545" lon="-70.0648462772369" alt="507.492M" type="H" frequency="0358.00" range="138937.0M" magvar="11.14" region="SV" ident="COR" name="CARORA" /><Ndb lat="10.2850407734513" lon="-68.7534575164318" alt="237.744M" type="H" frequency="0230.00" range="138937.0M" magvar="11.88" region="SV" ident="SPE" name="SAN FELIPE" /><Ndb lat="10.0500407069921" lon="-69.0779015421867" alt="355.092M" type="H" frequency="0260.00" range="138937.0M" magvar="11.69" region="SV" ident="YAR" name="YARITAGUA" /><Ndb lat="10.1550404727459" lon="-67.9404017329216" alt="545.592M" type="H" frequency="0380.00" range="138937.0M" magvar="12.31" region="SV" ident="VLC" name="VALENCIA" /><Ndb lat="9.99170735478401" lon="-67.6998460292816" alt="901.598M" type="H" frequency="0235.00" range="138937.0M" magvar="12.43" region="SV" ident="BEL" name="BELEN" /><Ndb lat="9.34059608727694" lon="-70.5842904746532" alt="464.21M" type="H" frequency="0278.00" range="138937.0M" magvar="10.78" region="SV" ident="VRA" name="VALERA" /><Ndb lat="9.03420735150576" lon="-69.7520685195923" alt="172.821M" type="H" frequency="0318.00" range="138937.0M" magvar="11.24" region="SV" ident="GRE" name="GUANARE" /><Ndb lat="8.62420722842216" lon="-70.2154017984867" alt="220.98M" type="H" frequency="0220.00" range="138937.0M" magvar="10.94" region="SV" ident="BNS" name="BARINAS" /><Ndb lat="9.55198500305414" lon="-69.2323462665081" alt="212.14M" type="H" frequency="0225.00" range="138937.0M" magvar="11.57" region="SV" ident="AGV" name="ACARIGUA" /><Ndb lat="7.80337415635586" lon="-72.1992905437946" alt="1026.871M" type="H" frequency="0310.00" range="138937.0M" magvar="9.67" region="SV" ident="PRM" name="PARAMILLO (SAN CRISTOBAL)" /><Ndb lat="7.5189295783639" lon="-71.9631792604923" alt="17.983M" type="H" frequency="0237.00" range="138937.0M" magvar="9.79" region="SV" ident="EPL" name="EL PINAL" /><Ndb lat="6.88583336770535" lon="-73.0938890576363" alt="1112.52M" type="H" frequency="0400.00" range="138937.0M" magvar="9.01" region="SK" ident="PIE" name="PIEDECUESTA (BUCARAMANGA)" /><Ndb lat="6.45194448530674" lon="-71.7513889074326" alt="308.152M" type="H" frequency="0270.00" range="138937.0M" magvar="9.82" region="SK" ident="TME" name="TAME" /><Ndb lat="6.95250000804663" lon="-71.8605557084084" alt="213.36M" type="H" frequency="0388.00" range="138937.0M" magvar="9.8" region="SK" ident="SVA" name="SARAVENA" /><Ndb lat="5.68000003695488" lon="-72.9741668701172" alt="2413.406M" type="H" frequency="0355.00" range="138937.0M" magvar="8.96" region="SK" ident="SOG" name="SOGAMOSO" /><Ndb lat="7.80809618532658" lon="-71.164568066597" alt="265.785M" type="H" frequency="0336.00" range="138937.0M" magvar="10.31" region="SV" ident="SBB" name="SANTA BARBARA DE BARINAS" /><Ndb lat="7.23337423056364" lon="-70.7998462021351" alt="149.047M" type="H" frequency="0250.00" range="138937.0M" magvar="10.48" region="SV" ident="GTO" name="GUASDUALITO" /><Ndb lat="7.05865178257227" lon="-69.4915129244328" alt="85.344M" type="H" frequency="0240.00" range="138937.0M" magvar="11.26" region="SV" ident="EZA" name="ELORZA" /><Ndb lat="10.611151792109" lon="-66.983735114336" alt="4.572M" type="H" frequency="0292.00" range="138937.0M" magvar="12.83" region="SV" ident="MIQ" name="MAIQUETIA" /><Ndb lat="9.95948497205973" lon="-67.1504017710686" alt="534.314M" type="H" frequency="0318.00" range="138937.0M" magvar="12.72" region="SV" ident="SSB" name="SAN SEBASTIAN" /><Ndb lat="10.4669850692153" lon="-66.0951241850853" alt="46.024M" type="H" frequency="0353.00" range="138937.0M" magvar="13.28" region="SV" ident="HOT" name="HIGUEROTE" /><Ndb lat="10.9208738431334" lon="-63.9562350511551" alt="0.914M" type="MH" frequency="0206.00" range="69469.0M" magvar="14.28" region="SV" ident="MTA" name="MARGARITA (DEL CARIBE)" /><Ndb lat="10.8994849026203" lon="-64.0459571778774" alt="14.63M" type="COMPASS_POINT" frequency="0218.00" range="41681.0M" magvar="14.24" region="SV" ident="MT" name="GILES" /><Ndb lat="8.9303183555603" lon="-67.4142904579639" alt="117.957M" type="H" frequency="0215.00" range="138937.0M" magvar="12.55" region="SV" ident="CZO" name="CALABOZO" /><Ndb lat="9.70392946153879" lon="-63.9992907643318" alt="269.443M" type="H" frequency="0330.00" range="138937.0M" magvar="14.27" region="SV" ident="URC" name="URICA" /><Ndb lat="8.95254079252481" lon="-64.1429015994072" alt="259.384M" type="MH" frequency="0220.00" range="69469.0M" magvar="14.21" region="SV" ident="SOM" name="SAN TOME" /><Ndb lat="10.6605963036418" lon="-63.2570685446262" alt="28.041M" type="H" frequency="0270.00" range="138937.0M" magvar="14.59" region="SV" ident="CUP" name="CARUPANO" /><Ndb lat="10.5952221527696" lon="-61.4222721755505" alt="9.753M" type="MH" frequency="0382.00" range="69469.0M" magvar="15.33" region="TT" ident="TRI" name="PIARCO (PORT OF SPAIN)" /><Ndb lat="11.1527917161584" lon="-60.8414000272751" alt="3.962M" type="H" frequency="0323.00" range="138937.0M" magvar="15.51" region="TT" ident="TAB" name="CROWN POINT (SCARBOROUGH)" /><Ndb lat="9.75365191698074" lon="-63.1562349200249" alt="85.953M" type="H" frequency="0230.00" range="138937.0M" magvar="14.65" region="SV" ident="MUN" name="MATURIN" /><Ndb lat="9.08892944455147" lon="-62.0931793749332" alt="0.914M" type="H" frequency="0225.00" range="138937.0M" magvar="15.12" region="SV" ident="TUC" name="TUCUPITA" /><Ndb lat="7.88420755416155" lon="-67.4426239728928" alt="29.87M" type="H" frequency="0333.00" range="138937.0M" magvar="12.49" region="SV" ident="SFD" name="SAN FERNANDO DE APURE" /><Ndb lat="7.63115186244249" lon="-66.1690127849579" alt="46.024M" type="H" frequency="0341.00" range="138937.0M" magvar="13.18" region="SV" ident="CDO" name="CAICARA" /><Ndb lat="6.56892970204353" lon="-66.8023462593555" alt="17.983M" type="MH" frequency="0310.00" range="69469.0M" magvar="12.8" region="SV" ident="PIJ" name="LOS PIJIGUAOS" /><Ndb lat="6.17000006139278" lon="-67.5" alt="54.864M" type="H" frequency="0353.00" range="138937.0M" magvar="12.39" region="SK" ident="PCR" name="PUERTO CARRENO" /><Ndb lat="7.75115188211203" lon="-63.0851237475872" alt="546.201M" type="H" frequency="0255.00" range="138937.0M" magvar="14.72" region="SV" ident="GUY" name="TOCOMITA" /><Ndb lat="8.11754062771797" lon="-63.5334572196007" alt="78.943M" type="H" frequency="0278.00" range="138937.0M" magvar="14.5" region="SV" ident="CBL" name="CIUDAD BOLIVAR" /><Ndb lat="7.25642949342728" lon="-61.5156792104244" alt="269.138M" type="H" frequency="0215.00" range="138937.0M" magvar="15.43" region="SV" ident="TMO" name="TUMEREMO" /><Ndb lat="6.73337426036596" lon="-61.5831796824932" alt="90.83M" type="H" frequency="0325.00" range="138937.0M" magvar="15.42" region="SV" ident="ELO" name="EL DORADO" /><Ndb lat="5.88333327323198" lon="-60.8000001311302" alt="587.044M" type="H" frequency="0406.00" range="138937.0M" magvar="15.8" region="SY" ident="KAM" name="KAMARANG" /><Ndb lat="4.62888892740011" lon="-74.1480557620525" alt="2378.049M" type="H" frequency="0284.00" range="138937.0M" magvar="8.07" region="SK" ident="TEH" name="TECHO" /><Ndb lat="4.78388875722885" lon="-74.7674998641014" alt="167.944M" type="H" frequency="0300.00" range="138937.0M" magvar="7.68" region="SK" ident="ABL" name="AMBALEMA" /><Ndb lat="4.84611097723246" lon="-74.3227779865265" alt="2759.659M" type="H" frequency="0340.00" range="138937.0M" magvar="7.98" region="SK" ident="BOG" name="BOGOTA" /><Ndb lat="5.4333333671093" lon="-71.6508333384991" alt="164.896M" type="H" frequency="1610.00" range="138937.0M" magvar="9.79" region="SK" ident="TDA" name="TRINIDAD" /><Ndb lat="4.73583329468966" lon="-72.3269444704056" alt="176.479M" type="H" frequency="0322.00" range="138937.0M" magvar="9.29" region="SK" ident="MNI" name="MANI" /><Ndb lat="4.57638870924711" lon="-72.97722235322" alt="260.908M" type="H" frequency="0315.00" range="138937.0M" magvar="8.84" region="SK" ident="UPI" name="BARRANCA DE UPIA" /><Ndb lat="4.07562229782343" lon="-73.5454528033733" alt="403.25M" type="H" frequency="0250.00" range="138937.0M" magvar="8.41" region="SK" ident="PY" name="APIAY" /><Ndb lat="4.07212503254414" lon="-73.4788276255131" alt="314.858M" type="H" frequency="0270.00" range="138937.0M" magvar="8.45" region="SK" ident="AP" name="APIAY" /><Ndb lat="4.06833339482546" lon="-73.3830553293228" alt="284.378M" type="H" frequency="0370.00" range="138937.0M" magvar="8.52" region="SK" ident="VVC" name="VILLAVICENCIO" /><Ndb lat="5.62254074960947" lon="-67.6081793010235" alt="73.152M" type="H" frequency="0375.00" range="138937.0M" magvar="12.3" region="SV" ident="PAY" name="PUERTO AYACUCHO" /><Ndb lat="2.1450001001358" lon="-74.7650000452995" alt="509.016M" type="H" frequency="0250.00" range="138937.0M" magvar="7.34" region="SK" ident="SVC" name="SAN VICENTE DEL CAGUAN" /><Ndb lat="1.25583339482546" lon="-70.2302777767181" alt="161.239M" type="H" frequency="0412.50" range="138937.0M" magvar="10.36" region="SK" ident="MTU" name="MITU" /><Ndb lat="0.266316533088684" lon="-69.9339111149311" alt="157.581M" type="H" frequency="0325.00" range="138937.0M" magvar="10.47" region="SB" ident="PCR" name="PARI-CACHOEIRA" /><Ndb lat="0.599652752280235" lon="-69.1839082539082" alt="100.888M" type="H" frequency="0380.00" range="138937.0M" magvar="11.0" region="SB" ident="YAU" name="IAUARETE (S.G. DA CACHOEIRA)" /><Ndb lat="5.31920738518238" lon="-66.0490129888058" alt="339.852M" type="H" frequency="0265.00" range="138937.0M" magvar="13.19" region="SV" ident="SJM" name="SAN JUAN DE MANAPIARE" /><Ndb lat="5.33337414264679" lon="-62.76651263237" alt="646.48M" type="H" frequency="0220.00" range="138937.0M" magvar="14.91" region="SV" ident="URM" name="URIMAN" /><Ndb lat="5.58754093945026" lon="-61.7515128850937" alt="1733.092M" type="H" frequency="0398.00" range="138937.0M" magvar="15.38" region="SV" ident="KAV" name="KAVANAYEN" /><Ndb lat="5.2333740144968" lon="-61.7665126919746" alt="943.965M" type="H" frequency="0272.00" range="138937.0M" magvar="15.39" region="SV" ident="KEM" name="UONQUEN (UON-QUEN)" /><Ndb lat="4.33337420225143" lon="-61.7379015684128" alt="722.376M" type="H" frequency="0318.00" range="138937.0M" magvar="15.43" region="SV" ident="ICA" name="ICABARU" /><Ndb lat="4.69781868159771" lon="-61.0273464024067" alt="680.618M" type="H" frequency="0245.00" range="138937.0M" magvar="15.75" region="SV" ident="LDP" name="LA DIVINA PASTORA" /><Ndb lat="2.83987496048212" lon="-60.6919777393341" alt="78.028M" type="H" frequency="0405.00" range="138937.0M" magvar="15.98" region="SB" ident="BVI" name="BOA VISTA" /><Ndb lat="1.92309625446796" lon="-67.0570684969425" alt="95.097M" type="H" frequency="0395.00" range="138937.0M" magvar="12.47" region="SV" ident="SRN" name="SAN CARLOS DE RIO NEGRO" /><Ndb lat="2.78309628367424" lon="-65.2162349224091" alt="185.928M" type="H" frequency="0360.00" range="138937.0M" magvar="13.6" region="SV" ident="OMO" name="OCAMO (MAIQUETIA)" /><Ndb lat="1.18298895657063" lon="-66.8339002132416" alt="80.772M" type="H" frequency="0345.00" range="138937.0M" magvar="12.57" region="SB" ident="CCI" name="CUCUI" /></FSData>