<FSData version="9.0"><Airport name="Baghdad Intl" ident="ORBI" lat="33.2625390216708" lon="44.2345780134201" alt="0.0"><Ils lat="33.2483524829149" lon="44.2555095255375" alt="34.747M" heading="150" frequency="110.700" range="50017.0M" magvar="-4.86" ident="YD" width="5" name="ILS 15L"><GlideSlope lat="33.2816665247083" lon="44.237222224474" alt="34.747M" pitch="3" range="50017.0M" /></Ils><Ils lat="33.28558254987" lon="44.229968637228" alt="34.747M" heading="330" frequency="110.100" range="50017.0M" magvar="-4.87" ident="YC" width="5" name="ILS 33R"><GlideSlope lat="33.2555555552244" lon="44.2552779614925" alt="34.747M" pitch="3" range="50017.0M" /></Ils><Ils lat="33.2704498618841" lon="44.2155709862709" alt="34.747M" heading="330" frequency="110.300" range="50017.0M" magvar="-4.87" ident="YIA" width="5" name="CAT II ILS 33L"><GlideSlope lat="33.2452971115708" lon="44.2334948480129" alt="34.747M" pitch="3" range="50017.0M" /></Ils><Ils lat="33.2391310483217" lon="44.2370706796646" alt="34.747M" heading="150" frequency="110.900" range="50017.0M" magvar="-4.86" ident="YIB" width="5" name="CAT II ILS 15R"><GlideSlope lat="33.2647223398089" lon="44.2200002074242" alt="34.747M" pitch="3" range="50017.0M" /></Ils></Airport></FSData>