<?xml version="1.0" encoding="ISO-8859-1"?>
<!-- Created by Scenery Design Engine (SDE) on 3/16/2025 -->
<FSData
   version="9.0"
   xmlns:xsi="http://www.w3.org/2001/XMLSchema-instance"
   xsi:noNamespaceSchemaLocation="bglcomp.xsd">
   <SceneryObject
      lat="46.3644444197416"
      lon="96.2911109626293"
      alt="0.0M"
      altitudeIsAgl="TRUE"
      pitch="0"
      bank="0"
      heading="0"
      imageComplexity="NORMAL">
      <LibraryObject
         name="{2fb72c66-290c-4727-b970-da20984cee83}"
         scale="1.00"
         />
   </SceneryObject>
   <SceneryObject
      lat="46.3716666027904"
      lon="96.2461110949516"
      alt="0.0M"
      altitudeIsAgl="TRUE"
      pitch="0"
      bank="0"
      heading="0"
      imageComplexity="NORMAL">
      <LibraryObject
         name="{2fb72c66-290c-4727-b970-da20984cee83}"
         scale="1.00"
         />
   </SceneryObject>
   <Airport
      country="Mongolia"
      city="Uliastai"
      name="Uliastai"
      lat="47.726694457233"
      lon="96.847330480814"
      alt="1833.981M"
      magvar="-1"
      trafficScalar="0.7"
      airportTestRadius="5000.0M"
      ident="ZMUT"
      >
      <Services>
      </Services>
      <Tower
         lat="47.7217263355851"
         lon="96.8495285511017"
         alt="16.459M">
      </Tower>
      <Runway
         lat="47.7196630463004"
         lon="96.8495973944664"
         alt="1833.981M"
         surface="GRASS"
         heading="162.429992675781"
         length="2348.48M"
         width="49.99M"
         number="16"
         designator="NONE"
         patternAltitude="304.8M"
         primaryTakeoff="YES"
         primaryLanding="YES"
         primaryPattern="LEFT"
         secondaryTakeoff="YES"
         secondaryLanding="YES"
         secondaryPattern="LEFT">
         <Markings
            alternateThreshold="FALSE"
            alternateTouchdown="FALSE"
            alternateFixedDistance="FALSE"
            alternatePrecision="FALSE"
            leadingZeroIdent="FALSE"
            noThresholdEndArrows="FALSE"
            edges="FALSE"
            threshold="FALSE"
            fixedDistance="FALSE"
            touchdown="FALSE"
            dashes="FALSE"
            ident="FALSE"
            precision="FALSE"
            edgePavement="FALSE"
            singleEnd="FALSE"
            primaryClosed="FALSE"
            secondaryClosed="FALSE"
            primaryStol="FALSE"
            secondaryStol="FALSE"/>
         <Lights
            center="NONE"
            edge="NONE"
            centerRed="FALSE"/>
      </Runway>
      <Start
         type="RUNWAY"
         lat="47.7294054999948"
         lon="96.8450193107128"
         alt="1833.981M"
         heading="162.429992675781"
         number="16"
         designator="NONE"/>
      <Start
         type="RUNWAY"
         lat="47.7099202573299"
         lon="96.8541750311852"
         alt="1833.981M"
         heading="342.429992675781"
         number="34"
         designator="NONE"/>
      <Com
         frequency="130.0000"
         type="APPROACH"
         name="ALDAR"/>
   </Airport>
   <Airport
      country="Mongolia"
      city="Altai"
      name="Altai"
      lat="46.3763333112001"
      lon="96.2209998071194"
      alt="2213.152M"
      magvar="-1"
      trafficScalar="0.7"
      airportTestRadius="5000.0M"
      ident="ZMAT"
      >
      <Services>
      </Services>
      <Tower
         lat="46.3751169294119"
         lon="96.2207056581974"
         alt="16.459M">
      </Tower>
      <Runway
         lat="46.3763668388128"
         lon="96.2210623919964"
         alt="2213.152M"
         surface="GRASS"
         heading="104.099998474121"
         length="2276.25M"
         width="60.05M"
         number="10"
         designator="NONE"
         patternAltitude="304.8M"
         primaryTakeoff="YES"
         primaryLanding="YES"
         primaryPattern="LEFT"
         secondaryTakeoff="YES"
         secondaryLanding="YES"
         secondaryPattern="LEFT">
         <Markings
            alternateThreshold="FALSE"
            alternateTouchdown="FALSE"
            alternateFixedDistance="FALSE"
            alternatePrecision="FALSE"
            leadingZeroIdent="TRUE"
            noThresholdEndArrows="TRUE"
            edges="FALSE"
            threshold="FALSE"
            fixedDistance="FALSE"
            touchdown="FALSE"
            dashes="TRUE"
            ident="TRUE"
            precision="FALSE"
            edgePavement="FALSE"
            singleEnd="FALSE"
            primaryClosed="FALSE"
            secondaryClosed="FALSE"
            primaryStol="FALSE"
            secondaryStol="FALSE"/>
         <Lights
            center="NONE"
            edge="MEDIUM"
            centerRed="FALSE"/>
      </Runway>
      <Start
         type="RUNWAY"
         lat="46.3787798210979"
         lon="96.2071613967419"
         alt="2213.152M"
         heading="104.099998474121"
         number="10"
         designator="NONE"/>
      <Start
         type="RUNWAY"
         lat="46.3739535212517"
         lon="96.2349633872509"
         alt="2213.152M"
         heading="284.100006103516"
         number="28"
         designator="NONE"/>
      <Com
         frequency="130.0000"
         type="APPROACH"
         name="TAISHIR"/>
      <Ndb
         lat="46.3644444197416"
         lon="96.2911109626293"
         alt="2200.046M"
         type="H"
         frequency="0364.00"
         range="138937.0M"
         magvar="-1"
         region="ZM"
         ident="GA"
         name="ALTAI">
      </Ndb>
      <Ndb
         lat="46.3716666027904"
         lon="96.2461110949516"
         alt="2200.046M"
         type="H"
         frequency="0425.00"
         range="138937.0M"
         magvar="-1"
         region="ZM"
         ident="B"
         name="ALTAI">
      </Ndb>
   </Airport>
</FSData>
